agente_cultural_id,provincia_id,localidad_id,observaciones,provincia,localidad,nombre,direccion_descripcion,piso,codigo_postal,codigo,telefono,mail,web,latitud,longitud,tipo_latitud_longitud,actividad_especifica,denominacion_especifica,otro_domicilio,fuente,institucion_organizadora,actividades_culturales,mes,como_llegar,anio_de_inicio
100229,6,6238010,,Buenos Aires,Dolores,Fiesta de las Colectividades,Parque Libres Del Sur,,7100,2245,15404911,mario_caceres_84@hotmail.com,,-36.318018,-57.698031,localizacion precisa,Fiesta Popular,,,Mario Marcelo Cáceres,Asociacion Permanente De Las Colectividades Ciudad De Dolores,espectáculos musicales y de danzas sin fines de lucro,noviembre,,2013
100276,6,6238010,,Buenos Aires,Dolores,Fiesta Nacional de la Guitarra,"Polideportivo Municipal Evita, Club Ecuestre La Caballeriza Y Parques Libres Del Sur",,,2245,442432,secretariadecultura@dolores.gov.ar,www.dolores.gov.ar,-36.31866493,-57.67521677,centroide localidad,Festival,,,Gobierno de la Provincia,,música y danzas - concurso/exposiciones - doma / jineteada / rodeo,marzo / abril,,
101021,6,6238010,,Buenos Aires,Dolores,Fiesta regional del camino del gaucho,Campo El Amanecer Ruta 2 Km 204,,,2245,442432,cultura@dolores.gov.ar,www.caminodelgaucho.com.ar,-36.31866493,-57.67521677,centroide localidad,FESTIVAL,,,Gobierno de la Provincia,,doma / jineteada / rodeo - música y danzas - concursos / exposiciones ,noviembre,,
101427,6,6420020,,Buenos Aires,Mar de Ajo - San Bernardo,Ciclo de rock y arena,"Mar De Ajo, S Clemente, San Bernardo Y Sta. Teresita",,,2246,433039,,www.lacosta.gov.ar,-36.72574071,-56.67720956,centroide localidad,FESTIVAL,,,Gobierno de la Provincia,,música y danzas - concursos / exposiciones,enero,,
101428,6,6420020,,Buenos Aires,Mar de Ajo - San Bernardo,Festival folklórico del tuyu,"Mar De Ajo, S Clemente, San Bernardo",,,2246,433039,,www.lacosta.gov.ar,-36.72574071,-56.67720956,centroide localidad,FESTIVAL,,,Gobierno de la Provincia,,música y danzas - concursos / exposiciones,,,
102280,6,6420030,,Buenos Aires,San Clemente del Tuyu,Fiesta Nacional de la Corvina Negra,Plaza Los Gauchos Del Sur. ,,,2246,433039,fiestadelacorvina@yahoo.com.ar,,-36.35556004,-56.723991,centroide localidad,Festival,,,Gobierno de la Provincia,,"pesca, ganadería, agricultura, jardinería - religión o creencias populares - música y danzas",octubre,,
102600,6,6420020,,Buenos Aires,Mar de Ajo - San Bernardo,Fiesta Nacional del Sol y la Familia,,,,2246,433039,,,-36.72574071,-56.67720956,centroide localidad,Festival,,,Gobierno de la Provincia,,"música y danzas - gastronomía (frutos, comidas, bebidas, etc.)",diciembre,,
102614,6,6420030,,Buenos Aires,San Clemente del Tuyu,Encuentro Santosvegano de Payadores,Plaza Pereira. ,,,2246,433039,,,-36.35556004,-56.723991,centroide localidad,Festival,,,Gobierno de la Provincia,,música y danzas,febrero,,
102909,6,6420020,,Buenos Aires,Mar de Ajo - San Bernardo,Fiesta Nacional de la Corvina Rubia,Parque General Lavalle. ,,,2246,433039,fncorvinarubia6@yahoo.com.ar,www.fncorvinarubia.com.ar ,-36.72574071,-56.67720956,centroide localidad,Festival,,,Gobierno de la Provincia,,"pesca, ganadería, agricultura, jardinería - música y danzas",noviembre,,
101111,6,6336020,,Buenos Aires,General Lavalle,Fiesta de Los Pescadores,General Lavalle,,,2252,491006,direccioncultura@yahoo.com.ar,www.lavalle.mun.gba.gov.ar,-36.4004517,-56.9668617,localizacion precisa,FESTIVAL,,,Gobierno de la Provincia,,concursos / exposiciones,junio,,
101569,6,6644010,,Buenos Aires,Pinamar,Aniversario del Municipio,,,,2254,491677,cultura@pinamar.gov.ar,www.pinamar.gov.ar,-37.10600762,-56.84842261,centroide localidad,Fiesta Popular,,,Gobierno de la Provincia,,,enero,,
101571,6,6644010,,Buenos Aires,Pinamar,Jazz en el bosque,Pinamar,,,2254,491677,cultura@pinamar.gov.ar,www.jazzenelbosque.com   ,-37.10600762,-56.84842261,centroide localidad,FESTIVAL,,,Gobierno de la Provincia,,música y danzas,enero,,
101572,6,6644010,,Buenos Aires,Pinamar,Pina rock festival,Pinamar,,,2254,491677,cultura@pinamar.gov.ar,www.pinamar.gov.ar,-37.10600762,-56.84842261,centroide localidad,,,,Gobierno de la Provincia,,,septiembre,,
101573,6,6644010,,Buenos Aires,Pinamar,Mes de la Música,Pinamar,,,2254,491677,cultura@pinamar.gov.ar,,-37.10600762,-56.84842261,centroide localidad,,,,Gobierno de la Provincia,,,noviembre,,
100210,6,6868020,,Buenos Aires,Villa Gesell,Aniversario de la Fundación de Villa Gesell. Inauguración de la Temporada de Verano,,,,2255,478037,cultura@gesell.com.ar ,www.gesell.gov.ar,-37.24850668,-56.97155338,centroide localidad,Fiesta Popular,,,Gobierno de la Provincia,,acto cívico,diciembre,,
100381,6,6868020,,Buenos Aires,Villa Gesell,Gesell en Concierto,Av.3 Paseo 4,,,2255,478037,cultura@gesell.com.ar ,www.gesell.gov.ar,-37.24850668,-56.97155338,centroide localidad,Festival,,,Gobierno de la Provincia,,música y danzas,marzo,,
100435,6,6868020,,Buenos Aires,Villa Gesell,Fiesta Nacional de la Raza en El Mar,,,,2255,478037,cultura@gesell.com.ar ,www.gesell.gov.ar,-37.24850668,-56.97155338,centroide localidad,Festival,,,Gobierno de la Provincia,,concursos / exposiciones - música y danzas,octubre,,
100524,6,6868020,,Buenos Aires,Villa Gesell,Villa Gesell Festival Rock,"Estadio Autocine, Ruta De Acceso Y Alameda 214.",,,2255,478037,cultura@gesell.com.ar ,www.gesell.gov.ar,-37.24850668,-56.97155338,centroide localidad,Festival,,,Gobierno de la Provincia,Focus Media,música y danzas,enero,,
100561,6,6868020,,Buenos Aires,Villa Gesell,Fiesta Provincial Por Las Huellas de Fierro y Vega,Polideportivo De Villa Gesell. ,,,2255,478037,cultura@gesell.com.ar ,"www.fierroyvega@hotmail.com,www.gesell.gov.ar",-37.24850668,-56.97155338,centroide localidad,Festival,,,Gobierno de la Provincia,,"concursos / exposiciones - doma / jineteada / rodeo - música y danzas - artesanías, productos locales y/o regionales",marzo,,
100641,6,6868020,,Buenos Aires,Villa Gesell,Encuentros Corales de Verano,Anfiteatro Del Pinar,,,2255,478037,cultura@gesell.com.ar ,www.gesell.gov.ar,-37.24850668,-56.97155338,centroide localidad,Festival,,,Gobierno de la Provincia,,música y danzas,enero,,
101363,6,6483040,,Buenos Aires,Lobos,Encuentro de Colectividades,Lobos,,,2261,440717,cultura@loberia.gov.ar / culturaloberia@yahoo.com.ar,www.loberia.gov.ar,-35.18822093,-59.09572415,centroide localidad,FESTIVAL,,,Gobierno de la Provincia,,"gastronomía  (frutos, comidas, bebidas, etc.)",octubre,,
102091,6,6476030,,Buenos Aires,Lobería,Fiesta de Las Tropillas y la Tradición,Campo De Destreza Criolla De La Agrupación Tradicionalista Gauchos De LoberãA. ,,,2261,440717,fiestadelastropillasloberia@hotmail.com /cultura @loberia.gov.ar,www.loberia.gov.ar,-38.16703868,-58.78169219,centroide localidad,Festival,,,Gobierno de la Provincia,,"música y danzas - artesanías, productos locales y/o regionales - concursos / exposiciones",marzo,,
101496,6,6581040,,Buenos Aires,Necochea - Quequén,Aniversario del Municipio,,,,2262,429909,culturanecochea@hotmail.com    ,www.necochea.gov.ar,-38.55448,-58.74155,localizacion precisa,Fiesta Popular,,,Gobierno de la Provincia,,acto cívico,octubre,,
102074,6,6581040,,Buenos Aires,Necochea - Quequén,Encuentro Provincial de Colectividades Extranjeras,,,,2262,429909,culturanecochea@hotmail.com    ,www.necochea.gov.ar,-38.55281,-58.73958,localizacion precisa,Festival,,,Gobierno de la Provincia,,expresiones culturales de colectividades de inmigrantes,julio,,
102086,6,6581040,,Buenos Aires,Necochea - Quequén,Fiesta Nacional del Niño,,,,2262,429909,culturanecochea@hotmail.com    ,,-38.55447,-58.73731,localizacion precisa,Festival,,,Gobierno de la Provincia,,música y danzas - cine/teatro,enero,,
100154,6,6518070,,Buenos Aires,Vivorata,Fiesta del Costillar,,,,2265,432330,fiestadelcostillar@hotmail.com,www.marchiquita.gov.ar,-37.6650873,-57.66712762,centroide localidad,FESTIVAL,,,Gobierno de la Provincia,,"gastronomía (frutos, comidas, bebidas, etc.)",enero,,
100441,6,6518010,,Buenos Aires,Coronel Vidal,Fiesta Nacional del Potrillo,,,,2265,432330,fiestanacionaldelpotrillo@hotmail.com.ar ,www.marchiquita.gov.ar,-37.45469513,-57.72944904,centroide localidad,Festival,,,Gobierno de la Provincia,,concursos / exposiciones - doma / jineteada / rodeo - música y danzas,febrero / marzo,,
101429,6,6518050,,Buenos Aires,Mar de Cobo,FIESTA DEL CORDERO COSTERO,,,,2265,432330,cultura_marchiquita@yahoo.com.ar,www.marchiquita.gov.ar,-37.77344913,-57.45220441,centroide localidad,FESTIVAL,,,Gobierno de la Provincia,,"gastronomía (frutos, comidas, bebidas, etc.)",noviembre,,
101795,6,6518060,,Buenos Aires,Santa Clara del Mar,Fiesta d ela cerveza artesanal,,,,2265,432330,cultura_marchiquita@yahoo.com.ar,www.marchiquita.gov.ar,-37.83855388,-57.50800624,centroide localidad,FESTIVAL,,,Gobierno de la Provincia,,"gastronomía (frutos, comidas, bebidas, etc.)",febrero,,
102613,6,6518040,,Buenos Aires,Mar Chiquita,Fiesta de la Albufera y la Reserva,,,,2265,432330,cultura_marchiquita@yahoo.com.ar,www.marchiquita.gov.ar,-37.74854294,-57.42748559,centroide localidad,Festival,,,Gobierno de la Provincia,,concursos / exposiciones - música y danzas,noviembre,,
100166,6,6063010,,Buenos Aires,Balcarce,Fiesta Nacional del Automóvil,,,,2266,422617,cultura@balcarce.mun.gba.gov.ar,,-37.85055976,-58.25519235,centroide localidad,Festival,,,Gobierno de la Provincia,,concursos / exposiciones - música y danzas,febrero,,
100800,6,6063010,,Buenos Aires,Balcarce,Fiesta del Postre Balcarce,Balcarce,,,2266,422617,cultura@balcarce.mun.gba.gov.ar,www.balcarce.gov.ar,-37.8464067,-58.2554584,localizacion precisa,FESTIVAL,,,Gobierno de la Provincia,,gastronómica,julio,,
100802,6,6063010,,Buenos Aires,Balcarce,Fiesta del Patrono San José,,,,2266,422617,cultura@balcarce.mun.gba.gov.ar,www.balcarce.gov.ar,-37.85055976,-58.25519235,centroide localidad,Fiesta Popular,,,Gobierno de la Provincia,,,marzo,,
100526,6,6315010,,Buenos Aires,General Juan Madariaga,Festival Madariaguense de Noches Camperas,Estadio Municipal Francisco Alcuaz. ,,,2267,550057,dcyemadariaga@yahoo.com.ar,www.madariaga.gov.ar,-36.99865792,-57.13633447,centroide localidad,Festival,,,Gobierno de la Provincia,,doma / jineteada / rodeo,febrero,,
101102,6,6315010,,Buenos Aires,General Juan Madariaga,Pasión Según San Juan,General Juan Madariaga,,,2267,550057,"turismo@madariaga.gob.ar,turismomadariaga@telpin.com.ar",www.madariaga.gov.ar,-36.9986992,-57.1341209,localizacion precisa,Fiesta Popular,,,Gobierno de la Provincia,,religión o creencias populares,abril,,
101103,6,6315010,,Buenos Aires,General Juan Madariaga,Éxodo Jujeño,General Juan Madariaga,,,2267,550057,dcyemadariaga@yahoo.com.ar,www.madariaga.gov.ar,-36.9986992,-57.1341209,localizacion precisa,FESTIVAL,,,Gobierno de la Provincia,,música y danzas - concursos / exposiciones,agosto,,
101104,6,6315010,,Buenos Aires,General Juan Madariaga,Fiesta del Talar,General Juan Madariaga,,,2267,550057,dcyemadariaga@yahoo.com.ar,www.madariaga.gov.ar,-36.9986992,-57.1341209,localizacion precisa,FESTIVAL,,,Gobierno de la Provincia,,"artesanías, productos locales y/o regionales - plástica/literatura - música y danzas ",octubre,,
101105,6,6315010,,Buenos Aires,General Juan Madariaga,Pre festival folklórico buscando nuevos valores,General Juan Madariaga,,,2267,550057,dcyemadariaga@yahoo.com.ar,www.madariaga.gov.ar,-36.9986992,-57.1341209,localizacion precisa,Festival,,,Gobierno de la Provincia,,música y danzas,febrero,,
101106,6,6315010,,Buenos Aires,General Juan Madariaga,Aniversario del Municipio,,,,2267,550057,dcyemadariaga@yahoo.com.ar,www.madariaga.gov.ar,-36.99865792,-57.13633447,centroide localidad,Fiesta Popular,,,Gobierno de la Provincia,,acto cívico,diciembre,,
102183,6,6315010,,Buenos Aires,General Juan Madariaga,Fiesta del Mejor Reservado,,,,2267,550057,"turismo@madariaga.gob.ar,turismomadariaga@telpin.com.ar",www.madariaga.gov.ar,-36.99865792,-57.13633447,centroide localidad,Festival,,,Gobierno de la Provincia,,doma / jineteada / rodeo,septiembre,,
102209,6,6315010,,Buenos Aires,General Juan Madariaga,Pejerrey de Oro,Laguna La Salada Grande. ,,,2267,550057,dcyemadariaga@yahoo.com.ar,www.madariaga.gov.ar,-36.99865792,-57.13633447,centroide localidad,Festival,,,Gobierno de la Provincia,,concursos / exposiciones,diciembre,,
102515,6,6315010,,Buenos Aires,General Juan Madariaga,Fiesta Nacional del Gaucho,General Juan Madariaga,,,2267,550057,info@fiestadelgaucho.com.ar ,www.fiestadelgaucho.org.ar ,-36.9986992,-57.1341209,localizacion precisa,FESTIVAL,,,Gobierno de la Provincia,,"artesanías, productos locales y/o regionales - plástica/literatura - música y danzas ",diciembre,,
102088,6,6511020,,Buenos Aires,Maipú,Fiesta Nacional Carnaval de la Amistad,Complejo Laguna Kakel Huincul.,,,2268,422144,,,-36.86715889,-57.88295013,centroide localidad,Fiesta Popular,,,Gobierno de la Provincia,,"música y danzas - artesanías, productos locales y/o regionales - concursos / exposiciones",febrero,,
102368,6,6547020,,Buenos Aires,San Miguel del Monte,Semana de la Federación,Plaza España Donde Se Encuentra El Rancho De Rosas,,,2271,406600,cultura@monte.mun.gba.gov.ar,,-35.44151058,-58.80947714,centroide localidad,Fiesta Popular,,,Gobierno de la Provincia,,"artesanías, productos locales y/o regionales - música y danzas - acto cívico",marzo,,
101493,6,6574030,,Buenos Aires,Navarro,Fiesta del Buñuelo Navarrense,Navarro,,,2272,430661,culturanavarro@yahoo.com.ar,www.navarro.mun.gba.gov.ar,-35.00636215,-59.27772022,centroide localidad,FESTIVAL,,,Gobierno de la Provincia,,"gastronomía (frutos, comidas, bebidas, etc.)",mayo,,
101494,6,6574030,,Buenos Aires,Navarro,Fiesta de las Colectividades,Navarro,,,2272,430390,culturanavarro@yahoo.com.ar,www.navarro.mun.gba.gov.ar,-35.00636215,-59.27772022,centroide localidad,FESTIVAL,,,Gobierno de la Provincia,,"gastronomía (frutos, comidas, bebidas, etc.)",septiembre,,
101495,6,6574030,,Buenos Aires,Navarro,Fiesta del Federalismo y la Tradición,Navarro,,,2272,430390,culturanavarro@yahoo.com.ar,www.navarro.mun.gba.gov.ar,-35.00636215,-59.27772022,centroide localidad,FESTIVAL,,,Gobierno de la Provincia,,,diciembre,,
102500,6,6161020,,Buenos Aires,Pueblo Gouin,Fiesta provincial del pastel,Carmen De Areco,,,2273,442570,culturacareco@yahoo.com.ar,www.municarmendeareco.com.ar,-34.3806686,-59.8223267,localizacion precisa,FESTIVAL,,,Gobierno de la Provincia,,"concursos / exposiciones - artesanías, productos locales y/o regionales - música y danzas",diciembre,,
100246,6,6049020,,Buenos Aires,Azul,Fiesta Nacional de la Miel,Predio Balneario Municipal,,,2281,433983,centroapicultoresazul@yahoo.com.ar,www.expomielazul.com.ar,-36.78182429,-59.85863567,centroide localidad,Festival,,,Gobierno de la Provincia,,"gastronomía (frutos, comidas, bebidas, etc.) - concursos / exposiciones - música y danzas",junio,,
100065,6,6049020,,Buenos Aires,Azul,Fiesta Regional de la Vaca,Azul,,,2281,432811,contacto@fiestadelavaca.com.ar,www.fiestadelavaca.com.ar,-36.7749672,-59.8540382,localizacion precisa,FESTIVAL,,,Gobierno de la Provincia,,"gastronomía (frutos, comidas, bebidas, etc.) - concursos / exposiciones - música y danzas ",marzo,,
100066,6,6049020,,Buenos Aires,Azul,Festival Cervantino,Azul,,,2281,432811,"culturaazul@yahoo.com.ar,festivalcervantinoazul@gmail.com",www.azul.gov.ar,-36.7749672,-59.8540382,localizacion precisa,,,,Gobierno de la Provincia,,música y danzas ,noviembre,,
100067,6,6049020,,Buenos Aires,Azul,Aniversario del Municipio,,,,2281,432811,culturaazul@yahoo.com.ar,www.azul.gov.ar,-36.78182429,-59.85863567,centroide localidad,Fiesta Popular,,,Gobierno de la Provincia,,acto cívico,diciembre,,
100434,6,6049020,,Buenos Aires,Azul,Fiesta del Angus,,,,2281,432811,culturaazul@yahoo.com.ar,www.azul.gov.ar,-36.78182429,-59.85863567,centroide localidad,Festival,,,Gobierno de la Provincia,,concursos / exposiciones - doma / jineteada / rodeo - música y danzas,septiembre,,
100470,6,6049020,,Buenos Aires,Azul,Azul Rock,,,,2281,432811,"azulrockverano@hotmail.com, ",www.azul.gov.ar,-36.78182429,-59.85863567,centroide localidad,Festival,,,Gobierno de la Provincia,,música y danzas,diciembre,,
100560,6,6049040,,Buenos Aires,Chillar,Fiesta del Chacarero,Chillar,,,2281,432811,culturaazul@yahoo.com.ar,www.azul.gov.ar,-37.3125191,-59.9819107,localizacion precisa,Fiesta Popular,,,Gobierno de la Provincia,,música y danzas ,marzo,,
100817,6,6049030,,Buenos Aires,Cachari,Festival Nacional del Ombú,Cachari,,,2281,432811,culturaazul@yahoo.com.ar,"www.azul.gov.ar , www.fiestadelombu.blogspot.com ",-36.3795891,-59.5023231,localizacion precisa,FESTIVAL,,,Gobierno de la Provincia,,música y danzas,noviembre,,
101518,6,6595070,,Buenos Aires,Olavarría,Encuentro de Jazz,Olavarría,,,2284,427180,culturayeducacion@olavarria.gov.ar,www.olavarria.gov.ar,-36.893452,-60.322101,localizacion precisa,FESTIVAL,,,Gobierno de la Provincia,,música y danzas,junio,,
101519,6,6595070,,Buenos Aires,Olavarría,Festival de Doma y Folklore,Club Racing,,,2284,427180,culturayeducacion@olavarria.gov.ar,www.festival-olavarria.com.ar,-36.886055,-60.321905,localizacion precisa,FESTIVAL,,,Gobierno de la Provincia,,doma / jineteada / rodeo - concursos / exposiciones,diciembre,,
101520,6,6595070,,Buenos Aires,Olavarría,Fiesta un Aplauso al Asador,Parque Helios Eseverri,,,2284,427180,culturayeducacion@olavarria.gov.ar,www.olavarria.gov.ar,-36.87685,-60.306353,localizacion precisa,FESTIVAL,,,Gobierno de la Provincia,,"gastronomía (frutos, comidas, bebidas, etc.)",noviembre,,
101521,6,6595070,,Buenos Aires,Olavarría,Aniversario del Municipio,,,,2284,427180,culturayeducacion@olavarria.gov.ar,www.olavarria.gov.ar,-36.89448886,-60.31753919,centroide localidad,Fiesta Popular,,,Gobierno de la Provincia,,,enero,,
101107,6,6322010,,Buenos Aires,General La Madrid,Festival de la Creación,General Lamadrid,,,2286,421107,subcom@lamadrid.gba.gov.ar,www.lamadrid.gba.gov.ar,-37.2476425,-61.2606163,localizacion precisa,FESTIVAL,,,Gobierno de la Provincia,,,enero,,
101108,6,6322010,,Buenos Aires,General La Madrid,Fiesta del Hornerito,General Lamadrid,,,2286,421107,,www.lamadrid.gba.gov.ar   ,-37.2476425,-61.2606163,localizacion precisa,FESTIVAL,,,Gobierno de la Provincia,,,,,
101109,6,6322010,,Buenos Aires,General La Madrid,Aniversario del Municipio,,,,2286,421107,,www.lamadrid.gba.gov.ar   ,-37.25269548,-61.25956181,centroide localidad,Fiesta Popular,,,Gobierno de la Provincia,,,enero,,
100964,6,6280010,,Buenos Aires,Comandante Nicanor Otamendi,Fiesta provincial de la papa,General Alvarado,,,2291,420901,culturaalvarado@yahoo.com.ar,www.mga.gov.ar,-38.2633476,-57.8671265,localizacion precisa,FESTIVAL,,,Gobierno de la Provincia,Club A. Circulo Deportivo,"gastronomía (frutos, comidas, bebidas, etc.)",marzo,,
101463,6,6280040,,Buenos Aires,Miramar,Fiesta de la Tradición Frente Al Mar,,,,2291,420901,culturaalvarado@yahoo.com.ar ,www.mga.gov.ar,-38.27321712,-57.84039508,centroide localidad,Festival,,,Gobierno de la Provincia,,,diciembre,,
100169,6,6084020,,Buenos Aires,Benito Juárez,Encuentro Folclórico Fortines y Toldería,,,,2292,453140,info@benitojuarez.gov.ar   ,www.benitojuarez.gov.ar,-37.67892889,-59.80577092,centroide localidad,Festival,,,Gobierno de la Provincia,,concursos / exposiciones - música y danzas - plástica / literatura,diciembre,,
100449,6,6084020,,Buenos Aires,Benito Juárez,Fiesta Provincial de la Frambuesa,Polideportivo Loma Negra,,,2292,453140,info@benitojuarez.gov.ar   ,www.benitojuarez.gov.ar,-37.67892889,-59.80577092,centroide localidad,Festival,,,Gobierno de la Provincia,,"artesanías, productos locales y/o regionales - gastronomía (frutos, comidas, bebidas, etc.)",febrero,,
101859,6,6791050,,Buenos Aires,Tandil,Rocarock,Anfiteatro,,,2293,430667,"cultura@tandil.gov.ar,direccionjuventudtandil@yahoo.com.ar",www.tandil.gov.ar,-37.339773,-59.138654,localizacion precisa,FESTIVAL,,,Gobierno de la Provincia,,música y danzas,marzo,,
101860,6,6791050,,Buenos Aires,Tandil,Folklorazo,Anfiteatro,,,2293,430667,"cultura@tandil.gov.ar,",www.tandil.gov.ar,-37.339773,-59.138654,localizacion precisa,FESTIVAL,,,Gobierno de la Provincia,,música y danzas,octubre,,
102128,6,6791050,,Buenos Aires,Tandil,Provincial de la Serenata,,,,2293,430667,"cultura@tandil.gov.ar,",www.tandil.gov.ar,-37.32618219,-59.1310812,centroide localidad,Festival,,,Gobierno de la Provincia,,"música y danzas - artesanías, productos locales y/o regionales",enero,,
102172,6,6791050,,Buenos Aires,Tandil,Semana Santa en Tandil,,,,2293,430667,"cultura@tandil.gov.ar,",www.tandil.gov.ar,-37.32618219,-59.1310812,centroide localidad,Fiesta Popular,,,Gobierno de la Provincia,,religión o creencias populares,marzo,,
100300,6,6042010,,Buenos Aires,Ayacucho,Fiesta Nacional del Ternero y Día de la Yerra,Parque Municipal Juan Manuel De Rosas,,,2296,459012,comision@fiestadelternero.org.ar,www.fiestadelternero.org.ar,-37.15596788,-58.48957012,centroide localidad,Fiesta Popular,,,Gobierno de la Provincia,Asociacion Civil Fiesta Del Ternero,música y danzas - concursos / exposiciones,abril,,
101628,6,6672010,,Buenos Aires,Rauch,Encuentro Cultural Musical,Rauch,,,2297,443249,culturarauch@yahoo.com.ar,www.rauch.mun.gba.gov.ar,-36.77781532,-59.08712447,centroide localidad,FESTIVAL,,,Gobierno de la Provincia,,música y danzas,abril,,
102076,6,6672010,,Buenos Aires,Rauch,Fiesta Nacional del Ave Raza,,,,2297,443249,fiestanacionalavederaza@hotmail.com,,-36.77781532,-59.08712447,centroide localidad,Festival,,,Gobierno de la Provincia,,"pesca, ganadería, agricultura, jardinería - concursos / exposiciones - música y danzas",septiembre,,
101715,6,6105060,,Buenos Aires,San Carlos de Bolívar,Fiesta del chorizo seco y la galleta de campo,Bolívar,,,2314,425271,culturabolivar@yahoo.com.ar,www.bolivar.gob.ar,-36.2283936,-61.1076431,localizacion precisa,FESTIVAL,,,Gobierno de la Provincia,,"gastronomía (frutos, comidas, bebidas, etc.)",noviembre,,
101716,6,6105060,,Buenos Aires,San Carlos de Bolívar,Aniversario del Municipio,,,,2314,425271,culturabolivar@yahoo.com.ar,www.bolivar.gob.ar,-36.23188623,-61.11317324,centroide localidad,Fiesta Popular,,,Gobierno de la Provincia,,,enero,,
102869,6,6105060,,Buenos Aires,San Carlos de Bolívar,Cantabolivar,,,,2314,425271,culturabolivar@yahoo.com.ar,www.bolivar.gob.ar,-36.23188623,-61.11317324,centroide localidad,Festival,,,Gobierno de la Provincia,,"música y danzas - concursos / exposiciones - artesanías, productos locales y/o regionales",febrero,,
100061,6,6231020,,Buenos Aires,Arboledas,Fiesta del Cordero,Daireaux,,,2316,452213,delegacionarboledas@hotmail.com,www.daireaux.gov.ar,-36.6009483,-61.748661,localizacion precisa,FESTIVAL,,,Gobierno de la Provincia,,"gastronomía (frutos, comidas, bebidas, etc.)",noviembre,,
101007,6,6231030,,Buenos Aires,Daireaux,Fortinera Deroense,Daireaux,,,2316,452213,contacto@daireaux.gba.gov.ar,www.daireaux.gov.ar,-36.6009483,-61.748661,localizacion precisa,FESTIVAL,,,Gobierno de la Provincia,,doma / jineteada / rodeo - música y danzas - concursos / exposiciones ,enero,,
101486,6,6588080,,Buenos Aires,Mórea,Fiesta del Lechón,Nueve De Julio,,,2317,498009,,www.moreanuestropueblo.com.ar,-35.55872918,-60.56058504,centroide localidad,FESTIVAL,,,Gobierno de la Provincia,,"gastronomía (frutos, comidas, bebidas, etc.)",diciembre,,
101452,6,6532020,,Buenos Aires,Mercedes,Feria del Libro,,,,2324,431907,culturamercedes@yahoo.com.ar  ,,-34.65453673,-59.42960845,centroide localidad,Festival,,,Gobierno de la Provincia,,plástica/literatura,agosto,,
102071,6,6532020,,Buenos Aires,Mercedes,Fiesta Nacional del Salame Quintero,,,,2324,431907,culturamercedes@yahoo.com.ar  ,www.fiestadelsalame.mercedesya.com.ar,-34.65453673,-59.42960845,centroide localidad,Festival,,,Gobierno de la Provincia,,"gastronomía (frutos, comidas, bebidas, etc.) - concursos / exposiciones - artesanías, productos locales y/o regionales",septiembre,,
102075,6,6532020,,Buenos Aires,Mercedes,Fiesta Nacional del Durazno,,,,2324,431907,culturamercedes@yahoo.com.ar,www.fiestadeldurazno.gob.ar,-34.65453673,-59.42960845,centroide localidad,Festival,,,Gobierno de la Provincia,,"concursos / exposiciones - gastronomía (frutos, comidas, bebidas, etc.) - música y danzas",diciembre,,
102133,6,6532020,,Buenos Aires,Mercedes,Fiesta de la Torta Frita,,,,2324,431907,culturamercedes@yahoo.com.ar,www.mercedes.gov.ar,-34.65453673,-59.42960845,centroide localidad,Fiesta Popular,,,Gobierno de la Provincia,,"gastronomía (frutos, comidas, bebidas, etc.) - artesanías, productos locales y/o regionales - música y danzas",abril,,
101699,6,6728040,,Buenos Aires,San Andrés de Giles,Fiesta de la Trocha Angosta,San Andrés De Giles,,,2325,440161,"culturasag@yahoo.com.ar, espora2010@gmail.com    ",www.sadegiles.mun.gba.gov.ar,-34.4482797,-59.44517601,centroide localidad,Festival,,,Gobierno de la Provincia,,"gastronomía (frutos, comidas, bebidas, etc.)",octubre,,
101700,6,6728040,,Buenos Aires,San Andrés de Giles,Esperando el 30,San Andrés De Giles,,,2325,440161,culturasag@yahoo.com.ar,www.sadegiles.mun.gba.gov.ar,-34.4482797,-59.44517601,centroide localidad,FESTIVAL,,,Gobierno de la Provincia,,religión o creencias populares,noviembre,,
102424,6,6728040,,Buenos Aires,San Andrés de Giles,Fiesta de la Tradición,,,,2325,440161,"culturasag@yahoo.com.ar, espora2010@gmail.com    ",www.sadegiles.mun.gba.gov.ar,-34.4482797,-59.44517601,centroide localidad,Festival,,,Gobierno de la Provincia,,música y danzas - concursos / exposiciones,noviembre,,
101705,6,6735020,,Buenos Aires,San Antonio de Areco,Aniversario del Municipio,,,,2326,456202,cultura@areco.mun.gba.gov.ar,www.areco.mun.gba.gov.ar ,-34.25275331,-59.47087213,centroide localidad,Fiesta Popular,,,Gobierno de la Provincia,,acto cívico,octubre,,
101706,6,6735020,,Buenos Aires,San Antonio de Areco,Fiesta de la Tradición,San Antonio De Areco,,,2326,456202,cultura@areco.mun.gba.gov.ar,www.areco.mun.gba.gov.ar ,-34.25275331,-59.47087213,centroide localidad,Festival,,,Gobierno de la Provincia,,"gastronomía (frutos, comidas, bebidas, etc.)",noviembre,,
102687,6,6735020,,Buenos Aires,San Antonio de Areco,Fiestas Patronales,Capilla De San Juan Bautista,,,2326,456202,cultura@areco.mun.gba.gov.ar,www.areco.mun.gba.gov.ar ,-34.25275331,-59.47087213,centroide localidad,Fiesta Popular,,,Gobierno de la Provincia,,"religión o creencias populares - artesanías, productos locales y/o regionales - gastronomía (frutos, comidas, bebidas, etc.) - doma / jineteada / rodeo",junio,,
102726,6,6735020,,Buenos Aires,San Antonio de Areco,Aniversario de la Revolución de Mayo y Primer Gobierno Patrio,,,,2326,456202,cultura@areco.mun.gba.gov.ar,www.areco.mun.gba.gov.ar ,-34.25275331,-59.47087213,centroide localidad,Fiesta Popular,,,Gobierno de la Provincia,,acto cívico,mayo,,
102928,6,6735020,,Buenos Aires,San Antonio de Areco,Fin de Semana en Areco,,,,2326,456202,cultura@areco.mun.gba.gov.ar,www.areco.mun.gba.gov.ar ,-34.25275331,-59.47087213,centroide localidad,Festival,,,Gobierno de la Provincia,,música y danzas,junio,,
100370,6,6112010,,Buenos Aires,Bragado,Fiesta del Caballo,,,,2342,422060,culturabragado@yahoo.com.ar,www.bragado.gov.ar,-35.12129769,-60.48790753,centroide localidad,Festival,,,Gobierno de la Provincia,,"artesanías, productos locales y/o regionales - concursos / exposiciones - doma / jineteada / rodeo",octubre,,
100809,6,6112010,,Buenos Aires,Bragado,"Festival, leyenda y Tradición",Bragado,,,2342,422060,culturabragado@yahoo.com.ar,www.bragado.gov.ar,-35.1199112,-60.4814262,localizacion precisa,FESTIVAL,,,Gobierno de la Provincia,,música y danzas,enero,,
100810,6,6112010,,Buenos Aires,Bragado,Bragado vive,Bragado,,,2342,422060,culturabragado@yahoo.com.ar,www.bragado.gov.ar,-35.1199112,-60.4814262,localizacion precisa,FESTIVAL,,,Gobierno de la Provincia,,"música y danzas - concursos / exposiciones - artesanías, productos locales y/o regionales ",febrero,,
100811,6,6112010,,Buenos Aires,Bragado,Fiesta de la Pachamama,Bragado,,,2342,422060,culturabragado@yahoo.com.ar,www.bragado.gov.ar,-35.1199112,-60.4814262,localizacion precisa,FESTIVAL,,,Gobierno de la Provincia,,"música y danzas - concursos / exposiciones - artesanías, productos locales y/o regionales ",agosto,,
100965,6,6112020,,Buenos Aires,Comodoro Py,Fiesta del chorizo seco,Bragado,,,2342,495024,culturabragado@yahoo.com.ar,www.bragado.gov.ar,-35.1199112,-60.4814262,localizacion precisa,FESTIVAL,,,Gobierno de la Provincia,,"música y danzas - gastronomía (frutos, comidas, bebidas, etc.) - concursos / exposiciones ",agosto,,
102212,6,6287010,,Buenos Aires,General Alvear,Fiesta del Mensual de Campo,,,,2344,481970,cultura@munialvear.gov.ar,www.munialvear.gov.ar,-36.02527068,-60.01479383,centroide localidad,Festival,,,Gobierno de la Provincia,,"doma / jineteada / rodeo - artesanías, productos locales y/o regionales",marzo,,
100003,6,6854100,,Buenos Aires,25 de Mayo,Aniversario del Municipio,,,,2345,463673,cultura25demayo@hotmail.com,www.vm.mun.gba.gov.ar,-35.43628536,-60.17172506,centroide localidad,Fiesta Popular,,,Gobierno de la Provincia,,acto cívico,noviembre,,
100004,6,6854100,,Buenos Aires,25 de Mayo,Carnavales,Corsódromo Del Parque De La Laguna Las Mulitas,,,2345,463673,cultura25demayo@hotmail.com,www.carnaval25demayo.com.ar,-35.43628536,-60.17172506,centroide localidad,Fiesta Popular,,,Gobierno de la Provincia,,,,,
100005,6,6854100,,Buenos Aires,25 de Mayo,Fiesta del Cordero,25 De Mayo,,,2345,463673,cultura25demayo@hotmail.com,www.vm.mun.gba.gov.ar,-35.43628536,-60.17172506,centroide localidad,Festival,,,Gobierno de la Provincia,,"gastronomía  (frutos, comidas, bebidas, etc.)",noviembre,,
100875,6,6224010,,Buenos Aires,Chivilcoy,Chilaverte,Chivilcoy,,,2346,422113,culturachivilcoy@hotmail.com ,www.chivilcoy.gov.ar,-34.8972397,-60.018837,localizacion precisa,FESTIVAL,,,Gobierno de la Provincia,,concursos / exposiciones,febrero,,
100571,6,6210020,,Buenos Aires,Chacabuco,Fiesta Nacional del Maíz,,,,2352,426699, cultura_chacabuco@yahoo.com.ar ,,-34.64511584,-60.47035531,centroide localidad,Festival,,,Gobierno de la Provincia,,"concursos / exposiciones - artesanías, productos locales y/o regionales - religión o creencias populares",noviembre,,
100854,6,6210020,,Buenos Aires,Chacabuco,Festival provincial de tango y folklore,Chacabuco,,,2352,426699,cultura_chacabuco@yahoo.com.ar,www.musicosunidos.net,-34.6359329,-60.4651222,localizacion precisa,FESTIVAL,,,Gobierno de la Provincia,,música y danzas,enero,,
100855,6,6210020,,Buenos Aires,Chacabuco,Fiesta regional de la empanada y el buen vino,Chacabuco,,,2352,426699,cultura_chacabuco@yahoo.com.ar,jcmalavolta@yahoo.com.ar ,-34.6359329,-60.4651222,localizacion precisa,FESTIVAL,,,Gobierno de la Provincia,,"gastronomía (frutos, comidas, bebidas, etc.)",enero,,
100856,6,6210020,,Buenos Aires,Chacabuco,Aniversario del Municipio,,,,2352,426699, cultura_chacabuco@yahoo.com.ar ,,-34.64511584,-60.47035531,centroide localidad,Fiesta Popular,,,Gobierno de la Provincia,,acto cívico,agosto,,
101356,6,6462050,,Buenos Aires,Leandro N. Alem,Fiesta en homenaje al caballo,Leandro N. Alem,,,2354,420111,culturaalem@yahoo.com.ar,www.leandronalem.gov.ar,-34.52330451,-61.39145207,centroide localidad,FESTIVAL,,,Gobierno de la Provincia,,doma / jineteada / rodeo - música y danzas,septiembre,,
102420,6,6462060,,Buenos Aires,Vedia,Encuentro Folclórico Vedia,,,,2354,420111,culturaalem@yahoo.com.ar,www.leandronalem.gov.ar,-34.49976871,-61.54531998,centroide localidad,Festival,,,Gobierno de la Provincia,Ballet Amancay Y Comisión De Apoyo A La Escuela Municipal De Arte.,música y danzas,octubre,,
101361,6,6469080,,Buenos Aires,Lincoln,Carnaval artesanal de Lincoln,Parque Municipal,,,2355,492052,culturalincoln@yahoo.com.ar,www.lincoln.gov.ar,-34.87140002,-61.52914128,centroide localidad,FESTIVAL,,,Gobierno de la Provincia,,"música y danzas - artesanías, productos locales y/o regionales - concursos / exposiciones ",febrero,,
101360,6,6469080,,Buenos Aires,Lincoln,Aniversario del Municipio,,,,2355,423609,culturalincoln@yahoo.com.ar ,www.lincoln.gov.ar,-34.87140002,-61.52914128,centroide localidad,Fiesta Popular,,,Gobierno de la Provincia,,acto cívico,julio,,
102095,6,6469080,,Buenos Aires,Lincoln,Festival de Doma y El Folklore,,,,2355,423609,culturalincoln@yahoo.com.ar ,www.lincoln.gov.ar,-34.87140002,-61.52914128,centroide localidad,Festival,,,Gobierno de la Provincia,,música y danzas - doma / jineteada / rodeo,enero,,
102252,6,6469080,,Buenos Aires,Lincoln,Carnavales de Lincoln,,,,2355,423609,culturalincoln@yahoo.com.ar ,www.lincoln.gov.ar,-34.87140002,-61.52914128,centroide localidad,Fiesta Popular,,,Gobierno de la Provincia,,"música y danzas - artesanías, productos locales y/o regionales - concursos / exposiciones",febrero,,
101120,6,6351020,,Buenos Aires,General Pinto,Fiesta del Pejerrey,General Pinto - Buenos Aires,,,2356,420093,culturapinto@yahoo.com.ar,www.pinto.gob.ar,-34.76770479,-61.89058987,centroide localidad,FESTIVAL,,,Gobierno de la Provincia,,concursos / exposiciones,mayo,,
101121,6,6351020,,Buenos Aires,General Pinto,Fiesta en Honor al Jinete Argentino ,General Pinto - Buenos Aires,,,2356,420093,culturapinto@yahoo.com.ar,www.pinto.gob.ar,-34.76770479,-61.89058987,centroide localidad,FESTIVAL,,,Gobierno de la Provincia,,doma / jineteada / rodeo - música y danzas,octubre,,
101128,6,6351030,,Buenos Aires,Germania,Fiesta de la Vaquillona asada con cuero en Germania,General Pinto - Buenos Aires,,,2356,420093,culturapinto@yahoo.com.ar,www.pinto.gob.ar,-34.57922013,-62.05154886,centroide localidad,FESTIVAL,,,Gobierno de la Provincia,,"gastronomía (frutos, comidas, bebidas, etc. ",noviembre,,
101390,6,6385030,,Buenos Aires,Los Toldos,Aniversario del Municipio,,,,2358,442859,culturalostoldos@yahoo.com.ar ,,-35.000246,-61.038332,centroide localidad,Fiesta Popular,,,Gobierno de la Provincia,,acto cívico,agosto,,
101391,6,6385030,,Buenos Aires,Los Toldos,Fiesta provincial de Folklore Ignacio Coliqueo,General Viamonte - Buenos Aires,,,2358,442859,culturalostoldos@yahoo.com.ar ,www.generalviamonte.gov.ar ,-35.000246,-61.038332,centroide localidad,FESTIVAL,,,Gobierno de la Provincia,,,,,
101392,6,6385030,,Buenos Aires,Los Toldos,Fiesta Nacional de telar mapuche y artesanos,General Viamonte - Buenos Aires,,,2358,442859,culturalostoldos@yahoo.com.ar ,www.generalviamonte.gov.ar ,-35.000246,-61.038332,centroide localidad,FESTIVAL,,,Gobierno de la Provincia,,"artesanías, productos locales y/o regionales - concursos / exposiciones - plástica/literatura",marzo,,
100708,6,6413010,,Buenos Aires,Agustín Roca,Fiesta Provincial del Fiambre Casero,Club Origone  - Agustín Roca,,,2362,631637,elfiambrecasero@hotmail.com,www.junin.gov.ar,-34.509104,-60.860146,localizacion precisa,Festival,,,Gobierno de la Provincia,,"gastronomía (frutos, comidas, bebidas, etc.)",noviembre,,
101234,6,6413050,,Buenos Aires,Junín,Festival Nacional de Folklore Competitivo,Complejo Deportivo Municipal Gral. San Martin,,,2362,4631637,cultura@junin.gov.ar,www.junin.gov.ar,-34.608937,-60.957235,localizacion precisa,FESTIVAL,,,Gobierno de la Provincia,,música y danzas - concursos / exposiciones,junio,,
101235,6,6413050,,Buenos Aires,Junín,Festival del parque,Parque Municipal Intendente Borchex,,,2362,4631637,cultura@junin.gov.ar,www.junin.gov.ar,-34.601351,-60.937959,localizacion precisa,FESTIVAL,,,Gobierno de la Provincia,,concursos / exposiciones,marzo,,
101236,6,6413050,,Buenos Aires,Junín,Ranchería rock,Junín,,,2362,4631637,cultura@junin.gov.ar,www.junin.gov.ar,-34.597107,-60.942888,localizacion precisa,FESTIVAL,,,Gobierno de la Provincia,,música y danzas,junio,,
101237,6,6413050,,Buenos Aires,Junín,Junín y sus voces,Plaza Fuerzas Armadas,,,2362,4631620,cultura@junin.gov.ar,www.junin.gov.ar,-34.588196,-60.94864,localizacion precisa,FESTIVAL,,,Gobierno de la Provincia,,música y danzas - concursos / exposiciones,enero,,
101239,6,6413050,,Buenos Aires,Junín,Junín de fiesta,Junín,,,2362,631637,cultura@junin.gov.ar,www.junindefiesta.com,-34.58619726,-60.94724978,centroide localidad,FESTIVAL,,,Gobierno de la Provincia,,música y danzas - concursos / exposiciones,diciembre,,
101357,6,6462050,,Buenos Aires,Leandro N. Alem,Fiesta del cordero,Leandro N. Alem,,,2362,15597718,adp650@hotmail.com,,-34.52330451,-61.39145207,centroide localidad,FESTIVAL,,,Gobierno de la Provincia,,"gastronomía (frutos, comidas, bebidas, etc.)",octubre,,
102423,6,6413070,,Buenos Aires,Morse,Fiesta Provincial del Cosechero,,,,2362,631637,fiestadelcosechero@hotmail.com,www.junin.gov.ar,-34.76325144,-60.84189909,centroide localidad,Festival,,,Gobierno de la Provincia,,"concursos / exposiciones - música y danzas - artesanías, productos locales y/o regionales",octubre,,
101585,6,6707050,,Buenos Aires,Polvaredas,Fiesta de la empanada frita al disco,Saladillo,,,2394,453030,saladillo@coopsal.com.ar,www.saladillosiente.com,-35.59625067,-59.50798007,centroide localidad,FESTIVAL,,,Gobierno de la Provincia,,"gastronomía (frutos, comidas, bebidas, etc.)",diciembre,,
101682,6,6707060,,Buenos Aires,Saladillo,Aniversario del Municipio,,,,2394,453030,saladillo@coopsal.com.ar,www.saladillosiente.com,-35.64276925,-59.77906131,centroide localidad,Fiesta Popular,,,Gobierno de la Provincia,,acto cívico,julio,,
101687,6,6721020,,Buenos Aires,Salliquelo,Aniversario del Municipio,,,,2394,480109,ofcultura@salliquelo.mun.gba.gov.ar,,-36.75347368,-62.95991457,centroide localidad,Fiesta Popular,,,Gobierno de la Provincia,,acto cívico,junio,,
101688,6,6721020,,Buenos Aires,Salliquelo,Aniversario del Municipio,Salliquelo,,,2394,480109,ofcultura@salliquelo.mun.gba.gov.ar,,-36.75347368,-62.95991457,centroide localidad,Fiesta Popular,,,Gobierno de la Provincia,,acto cívico,junio,,
101894,6,6847020,,Buenos Aires,Tres Lomas,Aniversario del Municipio,,,,2394,430295,,,-36.46128237,-62.86212474,centroide localidad,Fiesta Popular,,,Gobierno de la Provincia,,,enero,,
101895,6,6847020,,Buenos Aires,Tres Lomas,Fiesta del Tambero,,,,2394,430295,,,-36.46128237,-62.86212474,centroide localidad,Festival,,,Gobierno de la Provincia,,,noviembre,,
102182,6,6721020,,Buenos Aires,Salliquelo,Expo Rural Salliquelo - Fiesta del Novillo Tipo,,,,2394,480109,ofcultura@salliquelo.mun.gba.gov.ar,,-36.75347368,-62.95991457,centroide localidad,Festival,,,Gobierno de la Provincia,,"concursos / exposiciones - artesanías, productos locales y/o regionales - doma / jineteada / rodeo - música y danzas",septiembre,,
100745,6,6147030,,Buenos Aires,Carlos Casares,Huellas de Fortines,Parque San Esteban Y Parque Martín Medina,,,2395,450062,,www.huelladefortines.blogspot.com,-35.630633,-61.321758,centroide localidad,Fiesta Popular,,,Gobierno de la Provincia,,religión o creencias populares - música y danzas,abril,,
101471,6,6609060,,Buenos Aires,Mones Cazón,Festival de tango y folklore Mones Cazón ,Pehuajó,,,2396,476340,,www.monescazon.com.ar,-36.23197507,-62.00720814,centroide localidad,FESTIVAL,,,Gobierno de la Provincia,,música y danzas - concursos / exposiciones,enero,,
101547,6,6609080,,Buenos Aires,Pehuajó,Aniversario del Municipio,,,,2396,476340,culturapehuajo@yahoo.com.ar,www.pehuajo.gov.ar,-35.81444661,-61.89867784,centroide localidad,Fiesta Popular,,,Gobierno de la Provincia,,acto cívico,julio,,
101548,6,6609080,,Buenos Aires,Pehuajó,Festival de tango,Pehuajó,,,2396,476340,culturapehuajo@yahoo.com.ar,www.pehuajo.gov.ar,-35.81444661,-61.89867784,centroide localidad,Festival,,,Gobierno de la Provincia,,música y danzas,marzo,,
101549,6,6609080,,Buenos Aires,Pehuajó,Fiesta de la moto,Pehuajó,,,2396,476340,culturapehuajo@yahoo.com.ar,www.pehuajo.gov.ar,-35.81444661,-61.89867784,centroide localidad,FESTIVAL,,,Gobierno de la Provincia,,música y danzas,marzo,,
101550,6,6609080,,Buenos Aires,Pehuajó,Fiesta Nacional del Folklore Sureño,Pehuajó,,,2396,476340,culturapehuajo@yahoo.com.ar,www.pehuajo.gov.ar,-35.81444661,-61.89867784,centroide localidad,FESTIVAL,,,Gobierno de la Provincia,,música y danzas,enero,,
101551,6,6609080,,Buenos Aires,Pehuajó,Festival de rock,Pehuajó,,,2396,476340,culturapehuajo@yahoo.com.ar,www.pehuajo.gov.ar,-35.81444661,-61.89867784,centroide localidad,FESTIVAL,,,Gobierno de la Provincia,,música y danzas,abril,,
100245,6,6175010,,Buenos Aires,Colón,Certamen Folclórico de Colón para El País,,,,2473,423337,culturacolon@yahoo.com.ar,www.municipiocolon.gov.ar,-33.90024791,-61.09954345,centroide localidad,Festival,,,Gobierno de la Provincia,,música y danzas - concursos / exposiciones,julio,,
100339,6,6175010,,Buenos Aires,Colón,Encuentro Provincial de Artesanos,,,,2473,423337,culturacolon@yahoo.com.ar,www.municipiocolon.gov.ar,-33.90024791,-61.09954345,centroide localidad,Festival,,,Gobierno de la Provincia,,"artesanías, productos locales y/o regionales - música y danzas",marzo,,
100699,6,6175010,,Buenos Aires,Colón,Encuentro Intercolegial de Folclore  Jornadas de Folclore Argentino y 7° Festival de Folclore Lago,,,,2473,423337,culturacolon@yahoo.com.ar,www.municipiocolon.gov.ar,-33.90024791,-61.09954345,centroide localidad,Festival,,,Gobierno de la Provincia,,música y danzas - concursos / exposiciones - concursos / exposiciones,octubre,,
100933,6,6175010,,Buenos Aires,Colón,Aniversario del Municipio,,,,2473,423337,culturacolon@yahoo.com.ar,www.municipiocolon.gov.ar,-33.90024791,-61.09954345,centroide localidad,Fiesta Popular,,,Gobierno de la Provincia,,acto cívico,octubre,,
101693,6,6714060,,Buenos Aires,Salto,Encuentro Nacional de Artesanos del País,Salto,,,2474,424056,culturasalto@yahoo.com.ar,www.salto.gov.ar,-34.29499007,-60.25462059,centroide localidad,FESTIVAL,,,Gobierno de la Provincia,,"artesanías, productos locales y/o regionales - concursos / exposiciones - plástica/literatura",mayo,,
101694,6,6714060,,Buenos Aires,Salto,Fiesta Nacional de la sangría,Salto,,,2474,15665413,jorge_delaudo@yahoo.com.ar,,-34.29499007,-60.25462059,centroide localidad,FESTIVAL,,,Gobierno de la Provincia,,"gastronomía (frutos, comidas, bebidas, etc.)",noviembre,,
102081,6,6714060,,Buenos Aires,Salto,Fiesta Agropecuaria y del Caballo Criollo del Norte de la Provincia,Predio Ferial De La A.P.A.S,,,2474,424056,culturasalto@yahoo.com.ar,www.salto.gov.ar,-34.29499007,-60.25462059,centroide localidad,Festival,,,Gobierno de la Provincia,,concursos / exposiciones - doma / jineteada / rodeo,octubre,,
102339,6,6714060,,Buenos Aires,Salto,"Día de la Conversión de San Pablo, Patrono de la Ciudad",,,,2474,424056,culturasalto@yahoo.com.ar,www.salto.gov.ar,-34.29499007,-60.25462059,centroide localidad,Fiesta Popular,,,Gobierno de la Provincia,,acto cívico,enero,,
101669,6,6686060,,Buenos Aires,Rojas,Aniversario del Municipio,,,,2475,463691,culturarojas@yahoo.com.ar,www.rojasproduccion.gov.ar,-34.19876919,-60.73325433,centroide localidad,Fiesta Popular,,,Gobierno de la Provincia,,acto cívico,diciembre,,
101670,6,6686060,,Buenos Aires,Rojas,Festival de la Canción Inédita,Rojas,,,2475,463691,culturarojas@yahoo.com.ar,www.rojasproduccion.gov.ar,-34.19876919,-60.73325433,centroide localidad,FESTIVAL,,,Gobierno de la Provincia,,música y danzas,abril,,
100631,6,6077010,,Buenos Aires,Arrecifes,Viarte,Arrecifes,,,2478,451313,culturaarrecifes@yahoo.com.ar,www.muniarrecifes.gov.ar,-34.0638771,-60.1034889,localizacion precisa,,,,Gobierno de la Provincia,,"doma / jineteada / rodeo - artesanías, productos locales y/o regionales",abril,,
100789,6,6077010,,Buenos Aires,Arrecifes,Fiesta de la Primavera,Arrecifes,,,2478,451313,culturaarrecifes@yahoo.com.ar,www.muniarrecifes.gov.ar,-34.0638771,-60.1034889,localizacion precisa,FESTIVAL,,,Gobierno de la Provincia,,concursos / exposiciones - música y danzas,septiembre,,
101861,6,6791050,,Buenos Aires,Tandil,Aniversario del Municipio,,,,2494,430667,"cultura@tandil.gov.ar,",www.tandil.gov.ar,-37.32618219,-59.1310812,centroide localidad,Fiesta Popular,,,Gobierno de la Provincia,,acto cívico,abril,,
102084,6,6791050,,Buenos Aires,Tandil,Fiesta Nacional Festival Encuentro Folclórico de la Sierra,,,,2494,430667,consultas@elcielitotandil.com.ar ,www.elcielitotandil.com.ar,-37.32618219,-59.1310812,centroide localidad,Festival,,,Gobierno de la Provincia,,música y danzas,febrero,,
100831,6,6602030,,Buenos Aires,Carmen de Patagones,Fiesta provincial de la soberanía patagónica 7 de marzo,Carmen De Patagones,,,2920,463190,culturapatagones@gmail.com,www.sietedemarzo.com.ar,-40.7986389,-62.9803611,localizacion precisa,FESTIVAL,,,Gobierno de la Provincia,,,marzo,,
100325,6,6189030,,Buenos Aires,Coronel Dorrego,Fiesta Provincial de Las Llanuras,,,,2921,409298,cultura.dorrego@yahoo.com.ar,www.dorrego.gov.ar,-38.71888044,-61.28847631,centroide localidad,Festival,,,Gobierno de la Provincia,,doma / jineteada / rodeo - música y danzas - concursos / exposiciones,octubre,,
100981,6,6189030,,Buenos Aires,Coronel Dorrego,Fiesta del Olivo,Coronel Dorrego,,,2921,409298,cultura.dorrego@yahoo.com.ar,www.dorrego.gov.ar,-38.7194366,-61.2854576,localizacion precisa,FESTIVAL,,,Gobierno de la Provincia,,"gastronomía (frutos, comidas, bebidas, etc.)",abril,,
100982,6,6189030,,Buenos Aires,Coronel Dorrego,Feria de las colectividades,Coronel Dorrego,,,2921,409298,cultura.dorrego@yahoo.com.ar,www.dorrego.gov.ar,-38.7194366,-61.2854576,localizacion precisa,FESTIVAL,,,Gobierno de la Provincia,,"gastronomía (frutos, comidas, bebidas, etc.)",septiembre,,
100983,6,6189030,,Buenos Aires,Coronel Dorrego,Aniversario del Municipio,,,,2921,409298,cultura.dorrego@yahoo.com.ar,www.dorrego.gov.ar,-38.71888044,-61.28847631,centroide localidad,Fiesta Popular,,,Gobierno de la Provincia,,acto cívico,septiembre,,
101475,6,6553020,,Buenos Aires,Monte Hermoso,Aniversario del Municipio,,,,2921,481123,cultura@montehermoso.gov.ar,www.montehermoso.gov.a,-38.98194527,-61.29991295,centroide localidad,Fiesta Popular,,,Gobierno de la Provincia,,acto cívico,abril,,
101476,6,6553020,,Buenos Aires,Monte Hermoso,Fiesta del verano,Monte Hermoso,,,2921,481123,cultura@montehermoso.gov.ar,www.montehermoso.com.ar,-38.98194527,-61.29991295,centroide localidad,FESTIVAL,,,Gobierno de la Provincia,,música y danzas - concursos / exposiciones,enero,,
101477,6,6553020,,Buenos Aires,Monte Hermoso,Folklore en el mar,Monte Hermoso,,,2921,481123,gauchosdemontehermoso@hotmail.com,www.montehermoso.com.ar,-38.98194527,-61.29991295,centroide localidad,FESTIVAL,,,Gobierno de la Provincia,,música y danzas,noviembre,,
101478,6,6553020,,Buenos Aires,Monte Hermoso,Fiesta de la cerveza,Monte Hermoso,,,2921,481123,cultura@montehermoso.gov.ar ,www.montehermoso.gov.ar,-38.98194527,-61.29991295,centroide localidad,FESTIVAL,,,Gobierno de la Provincia,,"gastronomía (frutos, comidas, bebidas, etc.)",diciembre,,
101479,6,6553020,,Buenos Aires,Monte Hermoso,Festival folklórico Gauchos de Monte Hermoso,Monte Hermoso,,,2921,481123,cultura@montehermoso.gov.ar ,www.montehermoso.com.ar,-38.98194527,-61.29991295,centroide localidad,FESTIVAL,,,Gobierno de la Provincia,,"doma / jineteada / rodeo - artesanías, productos locales y/o regionales",noviembre,,
102101,6,6553020,,Buenos Aires,Monte Hermoso,Fiesta Nacional de la Primavera y del Estudiante,,,,2921,481123,cultura@montehermoso.gov.ar,www.montehermoso.gov.a,-38.98194527,-61.29991295,centroide localidad,Festival,,,Gobierno de la Provincia,,música y danzas,septiembre,,
100986,6,6196010,,Buenos Aires,Coronel Pringles,Fiesta Tradicionalista de la Asociación Fogón de los Gauchos,Coronel Pringles,,,2922,466166,mcp-cultura@pringles.com.ar,www.coronelpringles.gov.ar,-37.98547493,-61.35392189,localizacion precisa,FESTIVAL,,,Gobierno de la Provincia,,doma / jineteada / rodeo - música y danzas ,noviembre,,
100987,6,6196010,,Buenos Aires,Coronel Pringles,Fiesta de los Lanares,Coronel Pringles,,,2922,466166,mcp-cultura@pringles.com.ar,www.coronelpringles.gov.ar,-37.9854202,-61.3540382,localizacion precisa,FIESTA POPULAR,,,Gobierno de la Provincia,,,enero,,
100988,6,6196010,,Buenos Aires,Coronel Pringles,Fortín Tradición y Libertad,Coronel Pringles,,,2922,466166,mcp-cultura@pringles.com.ar,www.coronelpringles.gov.ar,-37.9854202,-61.3540382,localizacion precisa,FESTIVAL,,,Gobierno de la Provincia,,,septiembre,,
100991,6,6203020,,Buenos Aires,Coronel Suarez,Aniversario del Municipio,,,,2922,466166,mcp-cultura@pringles.com.ar,www.coronelpringles.gov.ar,-37.46191569,-61.93172518,centroide localidad,Fiesta Popular,,,Gobierno de la Provincia,,acto cívico,agosto,,
101059,6,6007040,,Buenos Aires,Espartillar (E),Fiesta de la carbonada,Espartillar,,,2923,475555,delespartillar@saavedra.gov.ar,www.saavedra.gov.ar,-37.36353145,-62.43121849,centroide localidad,FESTIVAL,,,Gobierno de la Provincia,,música y danzas,febrero,,
101596,6,6651080,,Buenos Aires,Púan,"Aniversario de la Ciudad de Púan, Cabecera de Distrito",,,,2923,4898501,,,-37.54490364,-62.76518773,centroide localidad,Fiesta Popular,,,Gobierno de la Provincia,,acto cívico,junio,,
101598,6,6651080,,Buenos Aires,Púan,Fiesta Nacional de la Cebada Cervecera,,,,2923,4898501,info@fiestacebadapuan.com.ar,,-37.54490364,-62.76518773,centroide localidad,Festival,,,Gobierno de la Provincia,,,,,
102078,6,6700070,,Buenos Aires,Saavedra,Fiesta Provincial del Reservado de Doma y Folklore,Laguna De Las Encadenadas.,,,2923,475555,cultura@saavedra.gov.ar,,-37.76606878,-62.3518027,centroide localidad,Festival,,,Gobierno de la Provincia,,música y danzas - doma / jineteada / rodeo,febrero,,
102151,6,6700060,,Buenos Aires,Pigüé,Cabalgatas Por Las Sierras del Cura Malal,,,,2923,475555,cultura@saavedra.gov.ar ,www.omeletteargentina.com.ar,-37.6092498,-62.40457527,centroide localidad,Festival,,,Gobierno de la Provincia,,música y danzas - cabalgatas,marzo,,
102288,6,6700060,,Buenos Aires,Pigüé,Fiesta de la Omelette Gigante,,,,2923,475555,cultura@saavedra.gov.ar ,,-37.6092498,-62.40457527,centroide localidad,Festival,,,Gobierno de la Provincia,,"gastronomía (frutos, comidas, bebidas, etc.)",diciembre,,
100530,6,6203020,,Buenos Aires,Coronel Suarez,Schlachfest - Fiesta de la Carneada,,,,2926,430255,culturasuarez@yahoo.com.ar,www.coronelsuarez.gba.gov.ar,-37.46191569,-61.93172518,centroide localidad,Festival,,,Gobierno de la Provincia,,"gastronomía (frutos, comidas, bebidas, etc.)",agosto,,
100990,6,6203020,,Buenos Aires,Coronel Suarez,Tantanakuy de Artesanías y Folklore,Coronel Suarez,,,2926,430255,culturasuarez@yahoo.com.ar,www.coronelsuarez.gba.gov.ar,-37.4559517,-61.9307251,localizacion precisa,FESTIVAL,,,Gobierno de la Provincia,,"concursos / exposiciones - artesanías, productos locales y/o regionales",octubre,,
102919,6,6203020,,Buenos Aires,Coronel Suarez,Exposición Rural y Tantaycuy de Artesanías y Folclore,Predio De La Sociedad Rural,,,2926,430255,culturasuarez@yahoo.com.ar,www.coronelsuarez.gba.gov.ar,-37.46191569,-61.93172518,centroide localidad,Festival,,,Gobierno de la Provincia,,"concursos / exposiciones - artesanías, productos locales y/o regionales",octubre,,
101163,6,6875030,,Buenos Aires,Hilario Ascasubi,Fiesta de la Cebolla,Villarino - Buenos Aires,,,2927,432201,cultura@villarino.mun.gba.gov.ar,www.villarino.gov.ar ,-39.37713386,-62.6462675,centroide localidad,Festival,,,Gobierno de la Provincia,,"gastronomía  (frutos, comidas, bebidas, etc.)",abril,,
101164,6,6875030,,Buenos Aires,Hilario Ascasubi,Fiesta de la Tradición,Villarino - Buenos Aires,,,2927,432201,cultura@villarino.mun.gba.gov.ar,www.villarino.gov.ar ,-39.37713386,-62.6462675,centroide localidad,Fiesta Popular,,,Gobierno de la Provincia,,acto cívico,noviembre,,
101445,6,6875060,,Buenos Aires,Médanos,Aniversario del Municipio,,,,2927,432201,cultura@villarino.mun.gba.gov.ar ,www.villarino.gov.ar ,-38.82862206,-62.6956569,centroide localidad,Fiesta Popular,,,Gobierno de la Provincia,,acto cívico,julio,,
102401,6,6875060,,Buenos Aires,Médanos,Fiesta Nacional del Ajo,"Parque De La Estación Ferroviaria De La Ciudad De Médanos, Capital Nacional Del Ajo. ",,,2927,432201,cultura@villarino.mun.gba.gov.ar ,www.villarino.gov.ar ,-38.82862206,-62.6956569,centroide localidad,Fiesta Popular,,,Gobierno de la Provincia,,"artesanías, productos locales y/o regionales - música y danzas - religión o creencias populares",abril,,
101078,6,6399030,,Buenos Aires,Garre,Fiesta del chorizo seco,Garre,,,2929,480033,info@lafiestadelchorizo.com.ar  ,www.guamini.gov.ar,-36.5619354,-62.6010094,localizacion precisa,FESTIVAL,,,Gobierno de la Provincia,,"gastronomía (frutos, comidas, bebidas, etc.)",octubre,,
101140,6,6399040,,Buenos Aires,Guamini,Aniversario del Municipio,,,,2929,480033,culturaguamini@yahoo.com.ar,www.guamini.gov.ar,-37.01439162,-62.41665238,centroide localidad,Fiesta Popular,,,Gobierno de la Provincia,,acto cívico,julio,,
101141,6,6399040,,Buenos Aires,Guamini,Festival historia y tradición,Guamini,,,2929,480033,culturaguamini@yahoo.com.ar,www.guamini.gov.ar,-37.01439162,-62.41665238,centroide localidad,FESTIVAL,,,Gobierno de la Provincia,,,enero,,
101142,6,6399040,,Buenos Aires,Guamini,Fiesta de las colectividades,Guamini,,,2929,480033,culturaguamini@yahoo.com.ar,www.guamini.gov.ar,-37.01439162,-62.41665238,centroide localidad,FESTIVAL,,,Gobierno de la Provincia,,"gastronomía (frutos, comidas, bebidas, etc.)",agosto,,
101143,6,6399040,,Buenos Aires,Guamini,Encuentro de domadores,Guamini,,,2929,480033,culturaguamini@yahoo.com.ar,www.guamini.gov.ar,-37.01439162,-62.41665238,centroide localidad,FESTIVAL,,,Gobierno de la Provincia,,doma / jineteada / rodeo - música y danzas,octubre,,
100073,6,6182020,,Buenos Aires,Balneario Pehuén Co,Fiesta del Encuentro,Cnel. Rosales,,,2932,425716,culturapuntaalta@yahoo.com.ar,www.muncrosales.gov.ar,-38.99844597,-61.54717971,centroide localidad,FESTIVAL,,,Gobierno de la Provincia,,música y danzas,octubre,,
102090,6,6182030,,Buenos Aires,Punta Alta,Fiesta de la Pescadilla,,,,2932,425716,culturapuntaalta@yahoo.com.ar,www.muncrosales.gov.ar,-38.88360303,-62.07492576,centroide localidad,Festival,,,Gobierno de la Provincia,,concursos / exposiciones,febrero,,
102092,6,6182030,,Buenos Aires,Punta Alta,Fiesta del Sol,,,,2932,425716,culturapuntaalta@yahoo.com.ar,www.muncrosales.gov.ar,-38.88360303,-62.07492576,centroide localidad,Festival,,,Gobierno de la Provincia,,"música y danzas - artesanías, productos locales y/o regionales",enero,,
102488,6,6182030,,Buenos Aires,Punta Alta,Fiesta de la Soberanía Nacional,,,,2932,425716,culturapuntaalta@yahoo.com.ar,www.muncrosales.gov.ar,-38.88360303,-62.07492576,centroide localidad,Fiesta Popular,,,Gobierno de la Provincia,,acto cívico - concursos / exposiciones,noviembre,,
102326,62,62077060,,Río Negro,Sierra Grande,Encuentro Folklórico Patagónico,,,8520,2934,481280,,,-41.60936021,-65.35340952,centroide localidad,Festival,,,Gobierno de la Provincia,Comision Organizadora Creada Por Decreto Municipal Nº1004,música y danza,diciembre,,1993
102177,62,62077050,,Río Negro,San Antonio Oeste,Fiesta Provincial de las Seis Horas del Pejerrey,,,8520,2934,430763,Sao.turismo@canaldig.com.ar,,-40.73349433,-64.95530714,centroide localidad,,,,Secretaria de Cultura de Rio Negro,,,septiembre,,
102852,62,62077060,,Río Negro,Sierra Grande,Fiesta Provincial de Playas Doradas,,,8532,2934,481868,sierragrande@canalag.com.ar,www.playasdoradas.net.ar,-41.60936021,-65.35340952,centroide localidad,Provincial,,,Secretaria de Cultura de Rio Negro,Municipalidad,"música y danzas - artesanías, productos locales y o regionales",enero,,2001
102725,62,62077010,,Río Negro,Las Grutas,Fiesta Aniversario del Golfo Azul,,,8520,2934,497463,Sao.turismo@canaldig.com.ar,,-40.80829095,-65.08471334,centroide localidad,,,,Secretaria de Cultura de Rio Negro,,,abril,,
100164,6,6007010,,Buenos Aires,Carhue,Fiesta del Turismo Termal,,,,2936,411191,,www.adolfoalsina.gov.ar,-37.17977679,-62.75785756,centroide localidad,Festival,,,Gobierno de la Provincia,,música y danzas - concursos / exposiciones,febrero,,
100825,6,6007010,,Buenos Aires,Carhue,Epecuén Rock Festival,Carhue,,,2936,411191,,www.adolfoalsina.gov.ar,-37.1780663,-62.7548218,localizacion precisa,Fiesta Popular,,,Gobierno de la Provincia,,música y danzas - concursos / exposiciones ,enero,,
100826,6,6007010,,Buenos Aires,Carhue,El país canta en Carhué,Carhue,,,2936,411191,,www.adolfoalsina.gov.ar,-37.1780663,-62.7548218,localizacion precisa,Fiesta Popular,,,Gobierno de la Provincia,,música y danzas,febrero,,
100827,6,6007010,,Buenos Aires,Carhue,Aniversario de la Fundación Carhue,,,,2936,411191,,www.adolfoalsina.gov.ar,-37.17977679,-62.75785756,centroide localidad,Fiesta Popular,,,Gobierno de la Provincia,,,enero,,
100321,62,62042010,,Río Negro,Allen,Fiesta Provincial del Estudiante,,,8328,2941,452503,turismoallen@ciudad.com.ar,,-38.98176044,-67.82799707,centroide localidad,,,,Secretaria de Cultura de Rio Negro,,,septiembre,,
100585,62,62042010,,Río Negro,Allen,Fiesta Nacional de la Pera,,,8328,2941,15657806,turismoallen@ciudad.com.ar,www.fiestadelapera.com,-38.98176044,-67.82799707,centroide localidad,,,,Gobierno de la Provincia / SInCA,,,enero,,
100263,62,62042560,,Río Negro,Villa Regina,Fiesta Provincial de la Vendimia,,,8336,2941,461149,,,-39.09854349,-67.08279491,centroide localidad,,,,Secretaria de Cultura de Rio Negro,,,marzo,,
100376,62,62042370,,Río Negro,Cervantes,Fiesta Provincial de la Jineteada,,,8326,2941,493004,,,-39.05382655,-67.39303755,centroide localidad,,,,Secretaria de Cultura de Rio Negro,,,diciembre,,
102876,62,62084060,,Río Negro,Valcheta,Fiesta Provincial de la Matra y las Artesanías,,,8536,2944,15411812,Enteregionsurcom_tur@yahoo.com.ar,,-40.68006329,-66.16532407,centroide localidad,,,,Secretaria de Cultura de Rio Negro,,,junio,,
102266,62,62091070,,Río Negro,Maquinchao,Fiesta Provincial de la Lana,,,8422,2944,15411812,Jacoturismo_rionegro@hotmail.com,,-41.24970026,-68.70030813,centroide localidad,,,,Secretaria de Cultura de Rio Negro,,,febrero,,
102661,62,62091050,,Río Negro,Ingeniero Jacobacci,Fiesta Provincial del Michay,,,8418,2944,15411812,Jacoturismo_rionegro@hotmail.com,,-41.32899405,-69.54408333,centroide localidad,Provincial,,,Secretaria de Cultura de Rio Negro,Municipalidad,"artesanías, productos locales y o regionales",marzo,,1985
100206,62,62091010,,Río Negro,Aguada de Guerra,Fiesta Provincial de la Cabra,,,8424,2944,15411812,Enteregionsurcom_tur@yahoo.com.ar,,-41.06609107,-68.38435174,centroide localidad,,,,Secretaria de Cultura de Rio Negro,,,abril,,
102611,62,62049050,,Río Negro,Sierra Colorada,Fiesta Provincial del Cordero,,,8534,2944,15411812,Enteregionsur_tur@yahoo.com.ar,,-40.58730316,-67.7555226,centroide localidad,Provincial,,,Secretaria de Cultura de Rio Negro,Municipalidad,"artesanías, productos locales y o regionales - doma / jineteada / rodeo",diciembre,,1990
102226,62,62021060,,Río Negro,San Carlos de Bariloche,Fiesta Nacional de la Nieve,,,,2944,423022,secturismo@bariloche.com.ar,,-41.1578,-71.3165,localizacion precisa,,,,Gobierno de la Provincia,,,junio,,
100723,62,62021030,,Río Negro,El Bolsón,Fiesta Provincial de la Fruta Fina,,,8430,2944,492304,turismo@elbolson.com,www.elbolson.gov.ar,-41.96805937,-71.53427223,centroide localidad,,,,Secretaria de Cultura de Rio Negro,,,enero,,
100416,62,62021030,,Río Negro,El Bolsón,Fiesta Nacional del Lúpulo,,,,2944,492604,turismo@elbolson.com,www.elbolson.gov.ar,-41.96805937,-71.53427223,centroide localidad,,,,Gobierno de la Provincia,,,marzo,,
101026,62,62021030,,Río Negro,El Bolsón,Festival de Jazz,,,8430,2944,455336,turismo@elbolson.com,www.elbolson.gov.ar,-41.96805937,-71.53427223,centroide localidad,,,,Gobierno de la Provincia,,,diciembre,,
100274,62,62021030,,Río Negro,El Bolsón,Fiesta de la Cerveza Artesanal,,,8430,2944,492604,turismo@elbolson.com,www.elbolson.gov.ar,-41.96805937,-71.53427223,centroide localidad,,,,Secretaria de Cultura de Rio Negro,,,octubre,,
100408,62,62014040,,Río Negro,Choele Choel,Fiesta del Ternero,,,8360,2946,442151,turismovallemedio@mymcom.com.ar,,-39.29069589,-65.66328525,centroide localidad,,,,Secretaria de Cultura de Rio Negro,,,mayo,,
100443,62,62014050,,Río Negro,Coronel Belisle,Fiesta Provincial de la Alfalfa,,,8364,2946,492011,munibelisle@mymcom.com.ar,,-39.18807446,-65.9563197,centroide localidad,,,,Secretaria de Cultura de Rio Negro,Municipalidad,,diciembre,,
100412,62,62014030,,Río Negro,Chimpay,Semana Ceferiniana,,,8364,2946,494501,municipio@chimpayense.com.ar / myaeger@chimpayense.com.ar,,-39.16739779,-66.14470501,centroide localidad,,,,Secretaria de Cultura de Rio Negro,,,agosto,,
102648,62,62014070,,Río Negro,Lamarque,Fiesta Nacional del Tomate y la Producción,,,8363,2946,497157,macelamarque@gmail.com / mace_lamarque@hotmail.com,,-39.42550302,-65.70145441,centroide localidad,,,,Secretaria de Cultura de Rio Negro,,,marzo,,
102504,58,58049010,,Neuquén,Junín de Los Andes,Exposición Feria Ganadera,Junín De Los Andes,,8371,2972,491993,cultura@junindelosandes.gov.ar,,-39.944088,-71.0722046,localizacion precisa,,,,Subsecretaria de Turismo,,,febrero,,
100442,6,6833020,,Buenos Aires,Claromeco,Semana de la Primavera y del Estudiante,,,,2983,439200,cultura_tarroyos@speedy.com.a,www.tresarroyos.gov.a,-38.85972867,-60.07305784,centroide localidad,Festival,,,Gobierno de la Provincia,,"concursos / exposiciones - gastronomía (frutos, comidas, bebidas, etc.) - artesanías, productos locales y/o regionales - música y danzas -",septiembre,,
100927,6,6833020,,Buenos Aires,Claromeco,Fiesta entre Asados y Relinchos,Tres Arroyos,,,2983,439200,cultura_tarroyos@speedy.com.a,www.tresarroyos.gov.ar,-38.85972867,-60.07305784,centroide localidad,Festival,,,Gobierno de la Provincia,,"gastronomía  (frutos, comidas, bebidas, etc.)",noviembre,,
101889,6,6833100,,Buenos Aires,Tres Arroyos,Fiesta Nacional de Artesanías,Tres Arroyos,,,2983,439200,cultura_tarroyos@speedy.com.a,www.tresarroyos.gov.ar,-38.37966129,-60.27549245,centroide localidad,Festival,,,Gobierno de la Provincia,,"artesanías, productos locales y/regionales - concursos/ exposiciones - plástica/literatura",agosto,,
102072,6,6833100,,Buenos Aires,Tres Arroyos,Fiesta Provincial del Trigo,Avenida Ituzaingó,,,2983,439200,cultura_tarroyos@speedy.com.a,www.tresarroyos.gov.a,-38.37966129,-60.27549245,centroide localidad,Festival,,,Gobierno de la Provincia,,concursos / exposiciones - música y danzas,marzo,,
100074,6,6070010,,Buenos Aires,Baradero,Fiesta del Mate,Baradero,,,3329,483627,culturabaradero@gmail.com,www.baradero.com.ar,-33.808876,-59.5046844,localizacion precisa,FESTIVAL,,,Gobierno de la Provincia,,"música y danzas - gastronomía (frutos, comidas, bebidas, etc.) - concursos / exposiciones ",octubre,,
100076,6,6070010,,Buenos Aires,Baradero,Aniversario del Municipio,,,,3329,480481,culturabaradero@gmail.com,www.festivaldebaradero.com.ar,-33.81526393,-59.50431364,centroide localidad,Fiesta Popular,,,Gobierno de la Provincia,,acto cívico,julio,,
100168,6,6070010,,Buenos Aires,Baradero,Festival de Música Popular Argentina,Anfiteatro Pedro Alberto Carossi,,,3329,480481,culturabaradero@gmail.com,www.festivaldebaradero.com.ar,-33.81526393,-59.50431364,centroide localidad,Festival,,,Gobierno de la Provincia,,"música y danzas - artesanías, productos locales y/o regionales - concursos / exposiciones",febrero,,
101662,6,6770040,,Buenos Aires,Rio Tala,FESTIVAL DE Música COUNTRY,San Pedro,,,3329,420723,cultura.sanpedro@hotmail.com,www.sanpedro.gov.ar,-33.77197847,-59.63837717,centroide localidad,FESTIVAL,,,Gobierno de la Provincia,,música y danzas,septiembre,,
101774,6,6770050,,Buenos Aires,San Pedro,Quema del Demonio,,,,3329,420723,cultura.sanpedro@hotmail.com,www.sanpedro.gov.ar,-33.6815122,-59.66690174,centroide localidad,Fiesta Popular,,,Gobierno de la Provincia,,religión o creencias populares,junio,,
101775,6,6770050,,Buenos Aires,San Pedro,Festival de Jineteada y Folklore,Sede Estadio Municipal,,,3329,420723,cultura.sanpedro@hotmail.com ,www.sanpedro.gov.ar,-33.6815122,-59.66690174,centroide localidad,Festival,,,Gobierno de la Provincia,,,enero,,
101776,6,6770050,,Buenos Aires,San Pedro,Festival de motos,San Pedro,,,3329,420723,cultura.sanpedro@hotmail.com,www.sanpedro.gov.ar,-33.6815122,-59.66690174,centroide localidad,FESTIVAL,,,Gobierno de la Provincia,,concursos / exposiciones - música,septiembre,,
101777,6,6770050,,Buenos Aires,San Pedro,Fiesta de las Colectividades,San Pedro,,,3329,420723,cultura.sanpedro@hotmail.com,www.sanpedro.gov.ar,-33.6815122,-59.66690174,centroide localidad,Festival,,,Gobierno de la Provincia,,"gastronomía (frutos, comidas, bebidas, etc.)",octubre,,
101778,6,6770050,,Buenos Aires,San Pedro,Fiesta de la Tradición,San Pedro,,,3329,420723,cultura.sanpedro@hotmail.com,www.sanpedro.gov.ar,-33.6815122,-59.66690174,centroide localidad,FESTIVAL,,,Gobierno de la Provincia,,"doma / jineteada / artesanías, productos locales y/o regionales",noviembre,,
101796,6,6070030,,Buenos Aires,Santa Coloma,Fiesta del mondongo y la torta frita,Santa Coloma,,,3329,480481,santa_coloma@live.com,www.baradero.com.ar,-34.0631104,-59.5623817,localizacion precisa,FESTIVAL,,,Gobierno de la Provincia,,gastronómica,mayo,,
102087,6,6770050,,Buenos Aires,San Pedro,Fiesta de la Ensaimada,,,,3329,420723,cultura.sanpedro@hotmail.com,,-33.6815122,-59.66690174,centroide localidad,Festival,,,Gobierno de la Provincia,,"gastronomía (frutos, comidas, bebidas, etc.) - concursos / exposiciones - música y danzas",agosto,,
102785,6,6770050,,Buenos Aires,San Pedro,Conmemoración del Combate de la Vuelta de Obligado,,,,3329,420723,cultura.sanpedro@hotmail.com,www.sanpedro.gov.ar,-33.6815122,-59.66690174,centroide localidad,Fiesta Popular,,,Gobierno de la Provincia,,acto cívico,noviembre,,
102913,6,6770050,,Buenos Aires,San Pedro,Semana de San Pedro,,,,3329,420723,cultura.sanpedro@hotmail.com,www.sanpedro.gov.ar,-33.6815122,-59.66690174,centroide localidad,Festival,,,Gobierno de la Provincia,,"acto cívico - concursos / exposiciones - gastronomía (frutos, comidas, bebidas, etc.) - música y danzas",julio,,
102927,82,82042220,,Santa Fe,Rufino,Encuentro Interprovincial de la Batata,,,,3382,428460,municipalidad@rufinonet.com.ar,,-34.26598486,-62.71166044,centroide localidad,Festival,,,Gobierno de la Provincia / SInCA,,agricultura,septiembre,,
102402,6,6274010,Código en Florencio Varela,Buenos Aires,La Capilla,Festival del Pueblo,,,,3388,470510,culturaameghino@yahoo.com.ar,www.florentinoameghino.gov.ar,-34.94764789,-58.2656858,centroide localidad,Festival,,,Gobierno de la Provincia,,"música y danzas - cine/teatro - artesanías, productos locales y/o regionales - concursos / exposiciones",febrero,,
102780,6,6274010,Código en Florencio Varela,Buenos Aires,La Capilla,Fiesta Provincial del Hombre de Campo,Centro Tradicionalista El Ceibo. Lugar Para Acampar Dentro Del Predio.,,,3388,470510,culturaameghino@yahoo.com.ar,www.florentinoameghino.gov.ar,-34.94764789,-58.2656858,centroide localidad,Festival,,,Gobierno de la Provincia,,doma / jineteada / rodeo - música y danzas,diciembre,,
102412,82,82028230,,Santa Fe,Villa Constitución,Festival Pre Federal del Chamamé,,,,3400,474608,intendencia@villaconstitucion.gov.ar,,-33.2348155,-60.33249416,centroide localidad,Festival,,,Gobierno de la Provincia / SInCA,,música y danzas,enero,,
102635,82,82028230,,Santa Fe,Villa Constitución,Precosquín,,,,3400,474608,intendencia@villaconstitucion.gov.ar,www.precosquinvc.com.ar,-33.2348155,-60.33249416,centroide localidad,Festival,,,Gobierno de la Provincia / SInCA,,música y danzas,diciembre,,
102632,82,82126070,,Santa Fe,El Trébol,Fiesta Nacional de la Ordenadora,,,,3401,422181,muntrebol@trebol.dataco16.com.ar,,-32.20544698,-61.70286512,centroide localidad,Festival,,,Gobierno de la Provincia / SInCA,,ganadería,octubre,,
100213,82,82126020,,Santa Fe,Carlos Pellegrini,Fiesta Nacional de las Culturas,,,,3401,480065,info@kumelen.org.ar,,-32.05509046,-61.78892081,centroide localidad,Festival,,,Gobierno de la Provincia / SInCA,Kumelen Asoc. Civil,expresiones culturales de pueblos originarios y de colectividades de inmigrantes,diciembre,,
100282,82,82126020,,Santa Fe,Carlos Pellegrini,Fiesta de Reinas Nacionales,,,,3401,480065,,,-32.05509046,-61.78892081,centroide localidad,Festival,,,Gobierno de la Provincia / SInCA,,"concursos, música y danzas",enero,,
102360,82,82105250,,Santa Fe,San Genaro Norte,Fiesta Provincial del Radioficionado,,,,3401,493169,,,-32.36822849,-61.34015859,centroide localidad,Festival,,,Gobierno de la Provincia / SInCA,,música y danzas,octubre,,
102514,82,82105250,,Santa Fe,San Genaro Norte,Fiesta Provincial del Trigo,,,,3401,493169,,,-32.36822849,-61.34015859,centroide localidad,Festival,,,Gobierno de la Provincia / SInCA,,"música y danzas, exposiciones",enero,,
102806,82,82070250,,Santa Fe,San Carlos Sud,Fiesta Argentina y Provincial de la Cerveza,,,,3404,420189,comunasud@scarlos.com.ar,,-31.76002934,-61.10073194,centroide localidad,Festival,,,Gobierno de la Provincia / SInCA,Club Central San Carlos Y Club Unión Progresista,gastronomía,enero,,1968
102856,82,82070270,,Santa Fe,San Jerónimo Norte,Fiesta Nacional del Folklore Suizo,,,,3404,460251,sjno@comunasjnorte.com.ar,,-31.5569727,-61.07849466,centroide localidad,Festival,,,Gobierno de la Provincia / SInCA,,música y danzas,junio,,
102123,82,82098060,,Santa Fe,San Javier,Fiesta Provincial de la Juventud,,,,3405,420434,socialsj@rgnet.com.ar,,-30.58466729,-59.93140103,centroide localidad,Festival,,,Gobierno de la Provincia / SInCA,,música y danzas,septiembre,,
102192,82,82035020,,Santa Fe,Helvecia,Fiesta Nacional y Provincial de la Pesca del Amarillo,,,,3405,470160,,,-31.10171938,-60.08814879,centroide localidad,Festival,,,Gobierno de la Provincia / SInCA,Club De Caza Y Pesca El Halcón .,pesca,julio,,
100196,82,82035010,,Santa Fe,Cayasta,Fiesta Provincial de la Zanahoria,,,,3405,493109,,,-31.20477377,-60.16144696,centroide localidad,Festival,,,Gobierno de la Provincia / SInCA,"Comisión Cooperadora Del JardãN De Infantes N° 30 Carlos Kaufmann, Juntamente Con El Apoyo De La Comuna Local.",música y danzas,noviembre,,
100322,82,82035010,,Santa Fe,Cayasta,Fiesta Provincial de la Yerra,,,,3405,493109,,,-31.20477377,-60.16144696,centroide localidad,Festival,,,Gobierno de la Provincia / SInCA,Asociación Conmemorativa De La Primera Yerra Y La Comuna De Cayasta,"música y danzas, doma y jineteada",junio,,
100337,82,82035010,,Santa Fe,Cayasta,Fiesta Preclasificatoria de Doma Par Jesús María,,,,3405,493109,,,-31.20477377,-60.16144696,centroide localidad,Festival,,,Gobierno de la Provincia / SInCA,,doma,noviembre,,
102333,82,82126140,,Santa Fe,San Jorge,Fiesta Nacional de Los Productores de Miel,,,,3406,440127,munisanjorge@trynet.com.ar,,-31.90043576,-61.86029829,centroide localidad,Festival,,,Gobierno de la Provincia / SInCA,Entidad Mutual Y Social La Emilia,apicultura,octubre,,
102932,82,82126140,,Santa Fe,San Jorge,Fiesta Provincial de la Industria Alimentaria,,,,3406,440127,munisanjorge@trynet.com.ar,,-31.90043576,-61.86029829,centroide localidad,Festival,,,Gobierno de la Provincia / SInCA,,"pesca, ganadería y agricultura",octubre,,
102807,82,82126150,,Santa Fe,San Martín de Las Escobas,Fiesta Provincial del Gaucho,,,,3406,498238,comunasme@sme.com.ar,,-31.86210486,-61.57018949,centroide localidad,Festival,,,Gobierno de la Provincia / SInCA,Centro Tradicionalista El Bagual,música y danzas,octubre,,
102236,82,82126160,,Santa Fe,Sastre,Fiesta Provincial del Carnaval,,,,3406,430090,socit@sme.com.ar,,-31.77196629,-61.82942177,centroide localidad,Fiesta Popular,,,Gobierno de la Provincia / SInCA,Asociación Carnavales Sastre Ortiz,música y danzas,febrero,,1962
101622,6,6665040,,Buenos Aires,Ramallo,Aniversario del Municipio,,,,3407,422907,ramalloculturaydeporte@arnetbiz.com.ar,www.ramallo.gov.ar,-33.49009774,-60.00721993,centroide localidad,Fiesta Popular,,,Gobierno de la Provincia,,,enero,,
102398,6,6665040,,Buenos Aires,Ramallo,Ramallo Pora ,"Paseo Turístico Arturo Jauretche En El  Puerto, A Orillas Del Río Paraná",,,3407,422907,ramalloculturaydeporte@arnetbiz.com.ar,www.ramallo-pora.com.ar,-33.49009774,-60.00721993,centroide localidad,Festival,,,Gobierno de la Provincia,,"música y danzas - artesanías, productos locales y/o regionales",febrero,,
102480,82,82091220,,Santa Fe,San Cristóbal,Fiesta Nacional del Caballo,,,,3408,423110,mscrtbl@hersilia.dataco14.com.ar,,-30.31415585,-61.23862184,centroide localidad,Festival,,,Gobierno de la Provincia / SInCA,Sociedad Rural De San Cristóbal,ganadería,noviembre,,
101767,6,6763050,,Buenos Aires,San Nicolás de Los Arroyos,Festival de Tango y Folclore,Anfiteatro Municipal San Nicolás,,,3461,423009,sannicolascultura@arnetbiz.com.ar,www.sannicolas.gov.ar,-33.347063,-60.202053,localizacion precisa,FESTIVAL,,,Gobierno de la Provincia,,música y danzas,febrero,,
101768,6,6763050,,Buenos Aires,San Nicolás de Los Arroyos,Aniversario del Municipio,,,,3461,423009,sannicolascultura@arnetbiz.com.ar,www.sannicolas.gov.ar,-33.33709452,-60.21839332,centroide localidad,Fiesta Popular,,,Gobierno de la Provincia,,acto cívico,abril,,
102925,82,82007040,,Santa Fe,Las Rosas,Fiesta Provincial del Mate,,,,3471,450022,lasrosasmuni@tvicom.com.ar,,-32.48099234,-61.57477762,centroide localidad,Festival,,,Gobierno de la Provincia / SInCA,Municipalidad De Las Rosas,"productos regionales, música y danzas",octubre,,
102805,82,82119130,,Santa Fe,San Lorenzo,Aniversario de la Batalla de San Lorenzo,,,,3476,438900,municipalidad@mail.sanlorenzo.gov.ar,,-32.754718,-60.73561005,centroide localidad,Fiesta Popular,,,Gobierno de la Provincia / SInCA,,conmemoración,febrero,,
102906,82,82056140,,Santa Fe,Totoras,Fiesta Nacional de la Leche,,,,3476,460040,,,-32.58876455,-61.16730896,centroide localidad,Festival,,,Gobierno de la Provincia / SInCA,Unión Footbal Club,"ganadería, música y danzas",diciembre,,
100644,82,82049020,,Santa Fe,Avellaneda,Festival de Bandas de Música,,,,3482,481079,muniave@trcnet.com.ar,,-29.12185708,-59.65925834,centroide localidad,Festival,,,Gobierno de la Provincia / SInCA,,música y danzas,noviembre,,1981
100645,82,82049020,,Santa Fe,Avellaneda,Encuentro Nacional de Coros,,,,3482,481079,muniave@trcnet.com.ar,,-29.12185708,-59.65925834,centroide localidad,Festival,,,Gobierno de la Provincia / SInCA,,música y danzas,septiembre,,
100762,82,82049020,,Santa Fe,Avellaneda,Fiesta Nacional y Provincial del Algodón,,,,3482,481079,muniave@trcnet.com.ar,,-29.12185708,-59.65925834,centroide localidad,Festival,,,Gobierno de la Provincia / SInCA,"Club Unión Avellaneda, Municipalidad De Avellaneda, Asociación Civil Juventud Agraria Cooperativista Centro Avellaneda, Concejo Municipal De Avellaneda, Unión AgrãCola De Avellaneda Coop. Ltda. Y Cooperativa De Servicios Públicos, Sociales Y Vivienda, Avellaneda Ltda.",agricultura,mayo,,
100777,82,82049020,,Santa Fe,Avellaneda,Fiesta Nacional E Internacional de Música Friulana,,,,3482,481079,muniave@trcnet.com.ar,,-29.12185708,-59.65925834,centroide localidad,Festival,,,Gobierno de la Provincia / SInCA,,música y danzas,octubre,,
102361,82,82049150,,Santa Fe,Malabrigo,"Fiesta Provincial del Citrus, Exposición Agro Industrial y Artesanal",,,,3482,454021,,,-29.35316496,-59.97059005,centroide localidad,Festival,,,Gobierno de la Provincia / SInCA,,"agricultura, artesanías, productos locales y regionales",junio,,
102814,82,82049180,,Santa Fe,Reconquista,Festival Folklórico Prov. del Nordeste Argentino,,,,3482,471302,munirqta@trcnet.com.ar,,-29.14763868,-59.65108021,centroide localidad,Festival,,,Gobierno de la Provincia / SInCA,,música y danzas,enero,,
102202,82,82098050,,Santa Fe,Romang,Fiesta Provincial del Sol,,,,3482,496200,comunarg@trcnet.com.ar,,-29.50431285,-59.74859871,centroide localidad,Festival,,,Gobierno de la Provincia / SInCA,,música y danzas,enero,,
102801,82,82098050,,Santa Fe,Romang,Fiesta Provincial Suiza,,,,3482,496200,comunarg@trcnet.com.ar,,-29.50431285,-59.74859871,centroide localidad,Fiesta Popular,,,Gobierno de la Provincia / SInCA,La Sociedad Suiza Gimnasia De Romang,"música y danzas, gastronomía",agosto,,
102889,82,82133090,,Santa Fe,La Gallareta,Fiesta Regional del Amigo,,,,3483,496095,secretaria@lagallareta.com.ar,,-29.58797377,-60.37993277,centroide localidad,Festival,,,Gobierno de la Provincia / SInCA,,música y danzas,octubre,,
101077,6,6252010,Código en Escobar,Buenos Aires,Garín,Festival de Raíces Provincianas,Garín,,,3488,430545,escobarcultural@ciudad.com.ar,www.escobar.gov.ar,-34.42241653,-58.73745918,localizacion precisa,FESTIVAL,,,Gobierno de la Provincia,,concursos / exposiciones - música y danzas,noviembre,,
102498,6,6252010,,Buenos Aires,Escobar,Fiesta Nacional de la Flor,,,,3488,430545,escobarcultural@ciudad.com.ar,www.fiestadelaflor.org.ar ,-34.3501886,-58.79206161,centroide localidad,Festival,,,Gobierno de la Provincia,,"pesca, ganadería, agricultura, jardinería - concursos / exposiciones - música y danzas",septiembre / octubre,,
100823,6,6126030,,Buenos Aires,Campana,Chocolatino,Campana,,,3489,407111,culturacampana@gmail.com,www.campana.gov.ar,-34.1674805,-58.9526405,localizacion precisa,FESTIVAL,,,Gobierno de la Provincia,"Gastronomia (Frutos, Comidas, Bebidas, Etc.)",,septiembre,,
100824,6,6126030,,Buenos Aires,Campana,Fiesta del automóvil argentino,Campana,,,3489,407111,culturacampana@gmail.com,www.campana.gov.ar,-34.16735762,-58.95263672,localizacion precisa,FESTIVAL,,,Gobierno de la Provincia,,,diciembre,,
100629,82,82091060,,Santa Fe,Ceres,Fiesta Nacional del Zapallo,,,,3491,420220,muni_ceres@hersilia.dataco14.com.ar,,-29.88481431,-61.94520157,centroide localidad,Festival,,,Gobierno de la Provincia / SInCA,,música y danza,julio,,
101221,54,54098080,,Misiones,Jardín América,Festival del Turista,,,3328,3743,460101,,,-27.04360634,-55.23206494,centroide localidad,Festival,,,Gobierno de la Provincia,Municipalidad,música y danza,enero,,1989
102337,54,54098080,,Misiones,Jardín América,Festival Provincial Infantil del Folklore,,,3328,3743,460101,,www.jardinamerica.gov.ar,-27.04360634,-55.23206494,centroide localidad,Festival,,,Gobierno de la Provincia,Municipalidad,música y danza,octubre,,1968
102646,54,54042020,,Misiones,Eldorado,Fiesta Provincial del Helado,,,3380,3751,424429,eldorado_cultura@yahoo.com.ar,,-26.41116825,-54.62383217,centroide localidad,Provincial,,,Gobierno de la Provincia,Municipalidad. Fundacion/Ong,"gastronomía (frutos, comidas, bebidas, etc.) - música y danza - expresiones culturales de colectividades de inmigrantes",enero,,1994
100848,54,54070040,,Misiones,Cerro Azul,Fiesta Provincial del Durazno,,,,3752,494028,,,-27.63355672,-55.49384213,centroide localidad,Provincial,,,Gobierno de la Provincia,,,,,
102318,54,54028030,,Misiones,Posadas,Teatro Por la Identidad,San Martín 1644,,,3752,15571918,asociacioncivilarteuno.blogspot.com,,-27.366187,-55.891983,localizacion precisa,Encuentro Grupos De Teatro,,,Gobierno de la Provincia,Ong,teatro,septiembre,,2004
102393,54,54028030,,Misiones,Posadas,Festival Internacional de Títeres Kruvikas,Posadas ,,,3752,15637167,,http://festivalkruvikas.blogspot.com,-27.38669,-55.96865,localizacion precisa,Encuentro,,,Gobierno de la Provincia,Grupo Kossa Nostra,plástica / teatro / conferencias y talleres,agosto,,2003
102346,54,54028030,,Misiones,Posadas,Festival Nacional de la Música del Litoral,,,3300,3752,428139,prensa@posadas.gov.ar,www.posadas.gov.ar,-27.3658,-55.89455,localizacion precisa,Festival,,,Gobierno de la Provincia,Municipalidad,música y danza - simposio de la música del litoral,noviembre,,1968
102185,54,54070070,,Misiones,Leandro N. Alem,Fiesta Provincial de la Cerveza,Grubert 277,,,3754,420535,,,-27.60439267,-55.32644233,centroide localidad,Festival,,,Gobierno de la Provincia,Municipalidad. Fundacion/Ong,"música y danza - gastronomía (frutos, comidas, bebidas, etc.) - expresiones culturales de colectividades de inmigrantes - artesanías, productos locales y o regionales",noviembre,,1976
102534,54,54105020,,Misiones,Itacaruare,Festival de las Carpas,,,3353,3754,490104,,,-27.86810299,-55.26383281,centroide localidad,Festival,,,Gobierno de la Pcia. de Misiones,Gobierno Provincial . Municipalidad.,música y danza - doma / jineteada / rodeo,enero,,1992
102533,54,54091090,,Misiones,Panambi,Festival Provincial del Sapucay,,,3361,3754,497040,,,-27.7210392,-54.91835779,centroide localidad,Festival,,,Gobierno de la Provincia,Municipalidad,música y danza,diciembre,,2000
100349,54,54014010,,Misiones,Aristóbulo del Valle,Festival Entre Saltos y Cascadas,,,3364,3755,490195,,,-27.0978265,-54.89488901,centroide localidad,Festival,,,Gobierno de la Provincia,Municipalidad. Universidad.,música y danza - gastronomía típica local,agosto,,1973
100463,54,54091020,,Misiones,Campo Ramón,Fiesta Nacional del Te,,,,3755,497007,,,-27.45479631,-55.02371837,centroide localidad,Festival,,,Gobierno de la Provincia,Municipalidad,gastronomía / música y danza / artesanías / productos regionales,febrero,,
100588,54,54091030,,Misiones,Campo Viera,Fiesta Nacional del Te,,,,3755,497007,,,-27.33358432,-55.0528377,centroide localidad,Nacional,,,Gobierno de la Provincia,Municipalidad,"gastronomía (frutos, comidas, bebidas, etc.) - música y danza - pesca, ganadería, agricultura, jardinería - artesanías, productos locales y o regionales",febrero,,
100763,54,54091020,,Misiones,Campo Ramón,Festival Provincial de la Ecología,,,3361,3755,483049,,,-27.45479631,-55.02371837,centroide localidad,Festival,,,Gobierno de la Provincia,Municipalidad.,música y danza,marzo,,
102469,54,54091080,,Misiones,Oberá,Festival de las Artesanías,,,3360,3755,421808,,,-27.48418304,-55.12513777,centroide localidad,Festival,,,Gobierno de la Provincia,Municipalidad,música - feria de artesanías,septiembre,,1999
102376,54,54091080,,Misiones,Oberá,Fiesta Nacional del Inmigrante,Ucrania 1050,,3360,3755,426814,federacion@fiestadelinmigrante.com.ar,www.fninmigrante.com.ar/,-27.48418304,-55.12513777,centroide localidad,Nacional,,,Gobierno de la Provincia,Fundacion/Ong,"gastronomía (frutos, comidas, bebidas, etc.) - música y danza - expresiones culturales de colectividades de inmigrantes - expresiones culturales de pueblos originarios - artesanías, productos locales y o regionales",septiembre,,1979
102485,54,54056030,,Misiones,San Vicente,Fiesta Nacional de la Madera,,,,3755,460133,fiestanacionaldelamadera@hotmail.com,,-26.99791628,-54.48349003,centroide localidad,Nacional,,,Gobierno de la Provincia,Municipalidad. Fundacion/Ong,"gastronomía (frutos, comidas, bebidas, etc.) - música y danza - pesca, ganadería, agricultura, jardinería - artesanías, productos locales y o regionales",mayo,,1982
102341,54,54056010,,Misiones,El Soberbio,Festival Nacional de la Esencia,,,3364,3755,495255,,,-27.29339092,-54.20077714,centroide localidad,Festival,,,Gobierno de la Provincia,Municipalidad,música y danza,noviembre,,1995
100586,54,54007010,,Misiones,Apóstoles,Fiesta Nacional de la Yerba Mate,Av. Centenario E Islas Malvinas ,,,3758,422194,,,-27.91232631,-55.75318003,centroide localidad,Nacional,,,Gobierno de la Provincia,Gobierno Provincial . Municipalidad. Fundacion/Ong,"gastronomía (frutos, comidas, bebidas, etc.) - música y danza - pesca, ganadería, agricultura, jardinería - artesanías, productos locales y o regionales",noviembre,,1972
100676,66,66021010,,Salta,Cafayate,Fiesta Patronal en Honor a la Virgen del Rosario,Nuestra Señora Del Rosario 51,,4427,3868,421227,,,-26.07909352,-65.98629001,centroide localidad,Fiesta Popular,,,Gobierno de la Provincia,Parroquia Nuestra Seã‘Ora Del Rosario,"religión o creencias populares - artesanías, productos locales o regionales - doma / jineteada / rodeo",octubre,189 Km. Al Sur De La Ciudad De Salta,
100445,66,66021010,,Salta,Cafayate,Fiesta Nacional del Vino Torrontés, S/N,,4427,3868,421503,labanda@salnet.com.ar,,-26.07909352,-65.98629001,centroide localidad,Festival,,,Gobierno de la Provincia,"Vasija Secreta, Boedga La Banda","artesanías, productos locales y/o regionales - música y danzas",noviembre,189 Km. Al Sur De La Ciudad De Salta,
100382,66,66021010,,Salta,Cafayate,Pre-Serenata de Cafayate,,,,3868,421510,,,-26.07909352,-65.98629001,centroide localidad,Festival,,,Gobierno de la Provincia,Municipalidad De Cafayate,música y danzas,febrero,189 Km. Al Sur De La Ciudad De Salta,
100231,66,66119020,,Salta,Molinos,Semana Santa,,,4419,3868,494007,,,-25.44681053,-66.30884368,centroide localidad,Fiesta Popular,,,Gobierno de la Provincia,Parroquia San Pedro Nolasco,religión o creencias populares,abril,206 Km. Al Suroeste De La Ciudad De Salta,
100233,66,66119030,,Salta,Seclantas,Semana Santa,,,4419,3868,494007,,,-25.33307937,-66.24844145,centroide localidad,Fiesta Popular,,,Gobierno de la Provincia,Parroquia Nuestra Seã‘Ora Del Carmen,religión o creencias populares,abril,187 Km. Al Suroeste De La Ciudad De Salta,
100291,66,66119020,,Salta,Molinos,Fiesta Patronal en Honor a San Pedro Nolasco y Nuestra Señora de la Candelaria,,,,3868,494007,,,-25.44681053,-66.30884368,centroide localidad,Fiesta Popular,,,Gobierno de la Provincia,Municipalidad De Molinos,religión o creencias populares,febrero,206 Km. Al Se. De La Ciudad De Salta,
100292,66,66119020,,Salta,Molinos,Fiesta Patronal en Honor a la Virgen de la Candelaria,,,4419,3868,494007,,,-25.44681053,-66.30884368,centroide localidad,Fiesta Popular,,,Gobierno de la Provincia,Parroquia San Pedro Nolasco,religión o creencias populares,febrero,149 Km. Al So. De La Ciudad De Salta,
100293,66,66119020,,Salta,Molinos,Fiesta en Honor a Nuestra Señora del Valle,,,4419,3868,494007,,,-25.44681053,-66.30884368,centroide localidad,Fiesta Popular,,,Gobierno de la Provincia,Parroquia San Pedro Nolasco,religión o creencias populares,mayo,206 Km. Al Se. De La Ciudad De Salta,
100296,66,66119030,,Salta,Seclantas,Fiesta de San Isidro Labrador,,,4419,3868,494007,,,-25.33307937,-66.24844145,centroide localidad,Fiesta Popular,,,Gobierno de la Provincia,Parroquia Nuestra Seã‘Ora Del Carmen,religión o creencias populares,mayo,190 Km. Al Suroeste De La Ciudad De Salta,
100297,66,66119030,,Salta,Seclantas,Fiesta Patronal en Honor a la Virgen del Carmen,,,4419,3868,494007,,,-25.33307937,-66.24844145,centroide localidad,Fiesta Popular,,,Gobierno de la Provincia,Parroquia Nuestra Seã‘Ora Del Carmen,religión o creencias populares,julio,228 Km. Al Suroeste De La Ciudad De Salta,
100681,66,66119020,,Salta,Molinos,Fiesta Patronal en Honor a la Virgen de la Merced,,,4419,3868,494007,,,-25.44681053,-66.30884368,centroide localidad,Fiesta Popular,,,Gobierno de la Provincia,Parroquia San Pedro Nolasco,religión o creencias populares,octubre,199 Km. Al Suroeste De La Ciudad De Salta,
102564,66,66119030,,Salta,Seclantas,Fiesta Patronal en Honor a Santiago Apóstol,,,4419,3868,494007,,,-25.33307937,-66.24844145,centroide localidad,Fiesta Popular,,,Gobierno de la Provincia,Parroquia Nuestra Seã‘Ora Del Carmen,religión o creencias populares - doma / jineteada / rodeo,julio,188 Km. Al Suroeste De La Ciudad De Salta,
100232,66,66154040,,Salta,San Carlos,Semana Santa,,,4427,3868,495046,,,-25.89581436,-65.93620153,centroide localidad,Fiesta Popular,,,Gobierno de la Provincia,Parroquia San Carlos Borromeo,religión o creencias populares,abril,298 Km. Al Suroeste De La Ciudad De Salta,
100236,66,66154010,,Salta,Angastaco,Semana Santa,,,4427,3868,495046,,,-25.68629468,-66.1630051,centroide localidad,Fiesta Popular,,,Gobierno de la Provincia,Parroquia San Carlos Borromeo,religión o creencias populares,abril,263 Km al suroeste de la ciudad de Salta,
100458,66,66154040,,Salta,San Carlos,Fiesta Patronal en Honor a la Virgen del Perpetuo Socorro,,,4427,3868,495046,,,-25.89581436,-65.93620153,centroide localidad,Fiesta Popular,,,Gobierno de la Provincia,Parroquia San Carlos Borromeo,religión o creencias populares,julio,273 Km. Al Suroeste De La Ciudad De Salta,
100510,66,66154040,,Salta,San Carlos,Fiesta Patronal en Honor a San Lucas,,,4427,3868,495046,,,-25.89581436,-65.93620153,centroide localidad,Fiesta Popular,,,Gobierno de la Provincia,Parroquia San Carlos Borromeo,religión o creencias populares,octubre,308 Km. Al Suroeste De La Ciudad De Salta,
100511,66,66154040,,Salta,San Carlos,Fiesta Patronal en Honor a San Antonio de Padua,,,4427,3868,495046,,,-25.89581436,-65.93620153,centroide localidad,Fiesta Popular,,,Gobierno de la Provincia,Parroquia San Carlos Borromeo,religión o creencias populares,junio,210 Km Al Sur De La Ciudad De Salta,
100513,66,66154010,,Salta,Angastaco,Fiesta Patronal en Honor a Santa Rosa de Lima,,,4427,3868,495046,,,-25.68629468,-66.1630051,centroide localidad,Fiesta Popular,,,Gobierno de la Provincia,Parroquia San Carlos Borromeo,religión o creencias populares,agosto,245 Km al suroeste de la ciudad de Salta,
100514,66,66154010,,Salta,Angastaco,Fiesta Patronal en Honor a Santa Teresa,,,4427,3868,495046,,,-25.68629468,-66.1630051,centroide localidad,Fiesta Popular,,,Gobierno de la Provincia,Parroquia San Carlos Borromeo,religión o creencias populares,octubre,249 Km al suroeste de la ciudad de Salta,
100515,66,66154010,,Salta,Angastaco,Festividad Religiosa y Popular,,,4427,3868,495046,,,-25.68629468,-66.1630051,centroide localidad,Fiesta Popular,,,Gobierno de la Provincia,Parroquia San Carlos Borromeo,religión o creencias populares,julio,228 Km al suroeste de la ciudad de Salta,
100516,66,66154020,,Salta,Animana,Fiesta Patronal en Honor a Nuestra Señora de las Mercedes,,,4427,3868,495046,,,-25.92762756,-65.96348939,centroide localidad,Fiesta Popular,,,Gobierno de la Provincia,Parroquia San Carlos Borromeo,religión o creencias populares,septiembre,198 Km al sur de la ciudad de Salta,
100542,66,66154010,,Salta,Angastaco,Fiesta Patronal en Honor a Nuestra Señora del Valle,,,4427,3868,495046,,,-25.68629468,-66.1630051,centroide localidad,Fiesta Popular,,,Gobierno de la Provincia,Parroquia San Carlos Borromeo,religión o creencias populares,diciembre,245 Km al suroeste de la ciudad de Salta,
100655,66,66154040,,Salta,San Carlos,Navidad,,,4427,3868,495046,,,-25.89581436,-65.93620153,centroide localidad,Fiesta Popular,,,Gobierno de la Provincia,Parroquia San Carlos Borromeo,religión o creencias populares,diciembre,298 Km. Al Suroeste De La Ciudad De Salta,
100657,66,66154010,,Salta,Angastaco,Navidad,,,4427,3868,495046,,,-25.68629468,-66.1630051,centroide localidad,Fiesta Popular,,,Gobierno de la Provincia,Parroquia San Carlos Borromeo,religión o creencias populares,diciembre,245 Km al suroeste de la ciudad de Salta,
100685,66,66154040,,Salta,San Carlos,Fiesta en Honor a San Isidro Labrador,,,4427,3868,495046,,,-25.89581436,-65.93620153,centroide localidad,Fiesta Popular,,,Gobierno de la Provincia,Parroquia San Carlos Borromeo,religión o creencias populares,mayo,303 Km. Al Suroeste De La Ciudad De Salta,
102196,66,66154040,,Salta,San Carlos,Fiesta Patronal en Honor a San Carlos Borromeo,,,4427,3868,495046,,,-25.89581436,-65.93620153,centroide localidad,Fiesta Popular,,,Gobierno de la Provincia,Parroquia San Carlos Borromeo,"religión o creencias populares - artesanías, productos locales o regionales - música y danza",noviembre,298 Km. Al Suroeste De La Ciudad De Salta,
100491,66,66056220,,Salta,Tartagal,Fiesta Patronal en Honor a la Virgen de la Pena,Gral. Güemes 399,,4500,3875,421654,,,-22.51248395,-63.79709702,centroide localidad,Fiesta Popular,,,Gobierno de la Provincia,Parroquia La Purisima,religión o creencias populares,agosto,379 Km. Al Noreste De La Ciudad De Salta,
100512,66,66056220,,Salta,Tartagal,Fiesta Patronal en Honor a San Antonio de Padua,Gral. Güemes 399,,4560,3875,421654,,,-22.51248395,-63.79709702,centroide localidad,Fiesta Popular,,,Gobierno de la Provincia,Parroquia La Purisima,religión o creencias populares,junio,365 Km. Al Noreste De La Ciudad De Salta,
100475,66,66140050,,Salta,Rosario de La Frontera,Festi Termas,25 De Mayo 143,,4190,3876,482424,,,-25.8114572,-64.98408269,centroide localidad,Festival,,,Gobierno de la Provincia,Comision Organizadora De Festi Termas,música y danzas,noviembre,176 Km. Al Sureste De La Ciudad De Salta,
100450,66,66112020,,Salta,El Tunal,Fiesta Patronal en Honor a Nuestra Señora de la Asunción,,,4444,3876,491021,,,-25.2678346,-64.40613748,centroide localidad,Fiesta Popular,,,Gobierno de la Provincia,Parroquia San Francisco Solano,religión o creencias populares,agosto,180 Km. Al Sureste De La Ciudad De Salta,
100492,66,66112010,,Salta,El Galpón,Fiesta Patronal en Honor a San Francisco Solano,,,4444,3876,491021,,,-25.39415426,-64.65953417,centroide localidad,Fiesta Popular,,,Gobierno de la Provincia,Parroquia San Francisco Solano,religión o creencias populares - doma / jineteada / rodeo,julio,147 Km. Al Sureste De La Ciudad De Salta,
102217,66,66084020,,Salta,El Tala,Fiesta Nacional de las Artes Lola Mora,San Martín 265,,4126,3876,492021,,,-26.12344586,-65.28732039,centroide localidad,Festival,,,Gobierno de la Provincia,Comision De Homenaje A Lola Mora,concursos / exposiciones,noviembre,275 Km. Al Sureste De La Ciudad De Salta,
100499,66,66084020,,Salta,El Tala,Fiesta Patronal en Honor a San Antonio de Padua,Av. San Martín S/N,,4126,3876,492063,,,-26.12344586,-65.28732039,centroide localidad,Fiesta Popular,,,Gobierno de la Provincia,Parroquia San Antonio De Padua,religión o creencias populares,junio,225 Km. Al Sureste De La Ciudad De Salta,
100678,66,66007090,,Salta,Joaquín V. González,Festival María del Transito Cabanillas de Jesús Sacramentada,Av. Güemes 351,,4448,3877,421026,,,-25.13200483,-64.13862836,centroide localidad,Fiesta Popular,,,Gobierno de la Provincia,Municipalidad De Joaquin V. Gonzalez,religión o creencias populares,agosto,250 Km Al Este De La Ciudad De Salta,
102781,66,66007090,,Salta,Joaquín V. González,Pesebre Viviente,Av. Güemes 351,,4448,3877,421026,,,-25.13200483,-64.13862836,centroide localidad,Fiesta Popular,,,Gobierno de la Provincia,Municipalidad De Joaquin V. Gonzalez,religión o creencias populares,diciembre,250 Km. Al Este De La Ciudad De Salta,
100241,66,66007010,,Salta,Apolinario Saravia,Fiesta Patronal en Honor a Nuestra Señora de Fátima,Pje.Perotti Y Güemes ,,4449,3877,493037,,,-24.43011633,-63.99294417,centroide localidad,Fiesta Popular,,,Gobierno de la Provincia,Parroquia Nuestra Seã‘Ora Del Rosario,religión o creencias populares,mayo,248 Km. Al Este De La Ciudad De Salta,
100675,66,66007010,,Salta,Apolinario Saravia,Fiesta Patronal en Honor a la Virgen del Rosario,Pje.Perotti Y Güemes ,,4449,3877,493037,,,-24.43011633,-63.99294417,centroide localidad,Fiesta Popular,,,Gobierno de la Provincia,Parroquia Nuestra Seã‘Ora Del Rosario,"religión o creencias populares - artesanías, productos locales o regionales - doma / jineteada / rodeo",octubre,241 Km. Al Este De La Ciudad De Salta,
100318,66,66007010,,Salta,Apolinario Saravia,Festival de la Tradición,,,4407,3877,493116,,,-24.43011633,-63.99294417,centroide localidad,Festival,,,Gobierno de la Provincia,Agrupacion Gauchos De Gãœemes De Apolinaro Saravia,música y danzas - doma / jineteada / rodeo,noviembre,241 Km. Al Este De La Ciudad De Salta.,
100702,66,66007010,,Salta,Apolinario Saravia,Muerte del General Martin Miguel de Güemes,,,4449,3877,493116,,,-24.43011633,-63.99294417,centroide localidad,Fiesta Popular,,,Gobierno de la Provincia,Agrupacion Gauchos De Gãœemes De Apolinaro Saravia,doma / jineteada / rodeo,junio,241 Km. Al Este De La Ciudad De Salta,
100506,66,66007100,,Salta,Las Lajitas,Fiesta Patronal en Honor a San Antonio de Padua,Buenos Aires S/N,,4449,3877,494039,,,-24.73577869,-64.19952127,centroide localidad,Fiesta Popular,,,Gobierno de la Provincia,Parroquia San Antonio De Padua,religión o creencias populares,junio,212 Km. Al Este De La Ciudad De Salta,
100507,66,66126060,,Salta,Pichanal,Fiesta Patronal en Honor a San Jorge Mártir,San Martín Esq.20 De Febrero ,,4534,3878,15641396,,,-23.31599539,-64.21979113,centroide localidad,Fiesta Popular,,,Gobierno de la Provincia,Parroquia San Jorge Martir,religión o creencias populares,abril,250 Km. Al Noreste De La Ciudad De Salta,
100508,66,66126060,,Salta,Pichanal,Fiesta en Honor a la Virgen del Rosario,San Martín Esq.20 De Febrero ,,4534,3878,15641396,,,-23.31599539,-64.21979113,centroide localidad,Fiesta Popular,,,Gobierno de la Provincia,Parroquia San Jose Martir,religión o creencias populares,octubre,250 Km. Al Noreste De La Ciudad De Salta,
102631,66,66126070,,Salta,San Ramón de La Nueva Oran,Fiesta Patronal en Honor a San Ramón Nonato,Carlos Pellegrini Esq.9 De Julio ,,4530,3878,421530,,,-23.13242298,-64.31862578,centroide localidad,Fiesta Popular,,,Gobierno de la Provincia,Catedral De San Ramon,religión o creencias populares - música y danzas,agosto,276 Km. Al Noreste De La Ciudad De Salta,
102429,66,66126070,,Salta,San Ramón de La Nueva Oran,Festi-Oran,25 De Mayo 292,,4530,3878,421758,info@radiogüemes.com.ar,www.radiogüemes.com.ar,-23.13242298,-64.31862578,centroide localidad,Festival,,,Gobierno de la Provincia,Mery Producciones,música y danzas,agosto,276 Km. Al Noreste De La Ciudad De Salta,
102551,66,66133060,,Salta,Pluma de Pato,Festival del Bombo y el Violín,,,,3878,433001,,,-23.38344577,-63.09811954,centroide localidad,Festival,,,Gobierno de la Provincia,Municipalidad De Rivadavia Banda Norte (Morillo),música y danzas - doma / jineteada / rodeo,julio,25 Km. De Morillo,
100518,66,66126020,,Salta,Colonia Santa Rosa,Fiesta Patronal en Honor a Santa Rosa de Lima,Belgrano Esq. Güemes ,,4531,3878,494079,,,-23.39819143,-64.42338527,centroide localidad,Fiesta Popular,,,Gobierno de la Provincia,Parroquia Santa Rosa De Lima,religión o creencias populares,agosto,246 Km. Al Noreste De La Ciudad De Salta,
100223,66,66133050,,Salta,Los Blancos,Fiesta en Honor a la Virgen del Valle,,,,3878,496055,,,-23.63274566,-62.59731167,centroide localidad,Fiesta Popular,,,Gobierno de la Provincia,Municipalidad De Rivadavia Banda Norte (Morillo),religión o creencias populares - doma / jineteada / rodeo,mayo,40 Km. De Morillo,
102550,66,66133050,,Salta,Los Blancos,Festival de Chaguar,,,,3878,496055,,,-23.63274566,-62.59731167,centroide localidad,Festival,,,Gobierno de la Provincia,Municipalidad De Rivadavia Banda Norte (Morillo),música y danzas - doma / jineteada / rodeo,mayo,40 Km. De Morillo,
100671,66,66070010,,Salta,Iruya,Fiesta Patronal en Honor a la Virgen del Rosario,Buenos Aires 383,,4630,3887,421102,,,-22.78996892,-65.21538024,centroide localidad,Fiesta Popular,,,Gobierno de la Provincia,Municipalidad De Iruya-Prelatura De Humahuaca,"religión o creencias populares - artesanías, productos locales o regionales - doma / jineteada / rodeo",octubre,317 Km. Al Noreste De La Ciudad De Salta,
100836,6,6560010,Código en Morón,Buenos Aires,Castelar,Morón Rock,Polideportivo Gorki Grana,,,11,46288862,musicayeventos@moron.gov.ar,www.moron.gov.ar,-34.660207,-58.659418,localizacion precisa,FESTIVAL,,,Gobierno de la Provincia,,música y danzas - concursos / exposiciones,noviembre,,
101070,6,6274010,,Buenos Aires,Florencio Varela,Expo Varela Rock,Florencio Varela,,,11,42551800,cultura@yahoo.com.ar,www.florenciovarela.gov.ar,-34.7965806,-58.276012,localizacion precisa,FESTIVAL,,,Gobierno de la Provincia,,música y danzas,noviembre,,
101487,6,6568010,,Buenos Aires,Morón,La Minga,Paseo De Las Artes,,,11,46288862,musicayeventos@moron.gov.ar,www.moron.gov.ar,-34.648907,-58.6249,localizacion precisa,FESTIVAL,,,Gobierno de la Provincia,,música y danzas,marzo,,
101723,6,6749010,,Buenos Aires,San Fernando,Cumpleaños de la patria,Plaza Mitre,,,11,47462507,,www.sanfernando.gov.ar,-34.440579,-58.558166,localizacion precisa,Fiesta Popular,,,Gobierno de la Provincia,,acto cívico,mayo,,
102184,6,6568010,,Buenos Aires,Morón,Arte a Palos,Teatro Municipal,,,11,46288862,musicayeventos@moron.gov.ar,www.moron.gov.ar,-34.650515,-58.622581,localizacion precisa,FESTIVAL,,,Gobierno de la Provincia,,música y danzas,,,
102493,6,6410010,,Buenos Aires,Ituzaingó,"Exposición y Fiesta del Folclore, Tradición E Identidad Nacional - Mi Tierra",,,,11,46246019,itucultura@miituzaingo.gov.ar,www.miituzaingo.gov.ar,-34.66487026,-58.66609975,centroide localidad,Festival,,,Gobierno de la Provincia,,"artesanías, productos locales y/o regionales - concursos / exposiciones - plástica/literatura",agosto,,
